SCHL_NR_ID,CNSS_YR,CNSS_SB_ID,SCHOOL_NM,SCHL_DSTRT,ELMNTRY_ST,SCNDRY_SCT,SCHL_YR_PD,DT_PBLCTNR,LATITUDE,LONGITUDE,X,Y
1,2011,5901035,?A'q'amnik Primary School,Southeast Kootenay,53,0,2016/2017,2017,49.582977,-115.75518,,
2,2011,5901022,Amy Woodland Elementary,Southeast Kootenay,273,0,2016/2017,2017,49.502802,-115.76873,,
3,2011,5901003,Elkford Elementary Secondary,Southeast Kootenay,32,150,2016/2017,2017,50.024445,-114.92166,,
4,2011,5901012,Fernie Secondary,Southeast Kootenay,55,284,2016/2017,2017,49.514039,-115.05414,,
5,2011,5901006,Frank J Mitchell Elementary,Southeast Kootenay,357,0,2016/2017,2017,49.736227,-114.89314,,
6,2011,5901022,Gordon Terrace Elementary,Southeast Kootenay,258,0,2016/2017,2017,49.497102,-115.77409,,
7,2011,5901022,Highlands Elementary,Southeast Kootenay,278,0,2016/2017,2017,49.501955,-115.73572,,
8,2011,5901012,Isabella Dicken Elementary,Southeast Kootenay,408,0,2016/2017,2017,49.509617,-115.05490,,
9,2011,5901019,Jaffray Elem-Jr Secondary,Southeast Kootenay,152,34,2016/2017,2017,49.372250,-115.29958,,
10,2011,5901022,Kootenay Christian Academy,Southeast Kootenay,137,24,2016/2017,2017,49.522001,-115.75506,,
11,2011,5901012,Kootenay Discovery School,Southeast Kootenay,3,167,2016/2017,2017,49.511794,-115.05270,,
12,2011,5901022,Kootenay Educational Services,Southeast Kootenay,0,93,2016/2017,2017,49.512517,-115.75788,,
13,2011,5901022,Kootenay Orchards Elementary,Southeast Kootenay,228,0,2016/2017,2017,49.496269,-115.75414,,
14,2011,5901022,Laurie Middle School,Southeast Kootenay,106,257,2016/2017,2017,49.508481,-115.75699,,
15,2011,5901022,Mount Baker Secondary,Southeast Kootenay,0,843,2016/2017,2017,49.512172,-115.76188,,
16,2011,5901022,Parkland Middle School,Southeast Kootenay,134,287,2016/2017,2017,49.497791,-115.77932,,
17,2011,5901022,Pinewood Elementary,Southeast Kootenay,116,0,2016/2017,2017,49.514365,-115.77456,,
18,2011,5901003,Rocky Mountain Elementary,Southeast Kootenay,237,0,2016/2017,2017,50.008169,-114.93314,,
19,2011,5901006,Sparwood Secondary,Southeast Kootenay,42,206,2016/2017,2017,49.734691,-114.89041,,
20,2011,5901022,St Mary's Catholic Independent,Southeast Kootenay,130,0,2016/2017,2017,49.503719,-115.75775,,
21,2011,5901022,Steeples Elementary,Southeast Kootenay,187,0,2016/2017,2017,49.518201,-115.74789,,
22,2011,5901022,T M Roberts Elementary,Southeast Kootenay,376,0,2016/2017,2017,49.504533,-115.77817,,
23,2011,5901012,The Fernie Academy,Southeast Kootenay,197,92,2016/2017,2017,49.502640,-115.06206,,
24,2011,5939007,Alexander Park Elementary,Rocky Mountain,229,0,2016/2017,2017,51.297778,-116.96472,,
25,2011,5901039,David Thompson Secondary,Rocky Mountain,0,416,2016/2017,2017,50.503009,-116.04199,,
26,2011,5901048,Edgewater Elementary,Rocky Mountain,104,0,2016/2017,2017,50.695285,-116.13641,,
27,2011,5901039,Eileen Madson Primary School,Rocky Mountain,211,0,2016/2017,2017,50.496788,-116.04129,,
28,2011,5939007,Golden Alternate School,Rocky Mountain,0,38,2016/2017,2017,51.297660,-116.94876,,
29,2011,5939007,Golden Secondary,Rocky Mountain,0,292,2016/2017,2017,51.297660,-116.94876,,
30,2011,5901039,J Alfred Laird Elementary,Rocky Mountain,217,0,2016/2017,2017,50.504505,-116.03783,,
31,2011,5901028,Kimberley Alternate School,Rocky Mountain,0,21,2016/2017,2017,49.686760,-115.98051,,
32,2011,5901028,Kimberley Independent School,Rocky Mountain,66,0,2016/2017,2017,49.665733,-115.96785,,
33,2011,5939007,Lady Grey Elementary,Rocky Mountain,213,0,2016/2017,2017,51.296112,-116.97289,,
34,2011,5901028,Lindsay Park Elementary,Rocky Mountain,176,0,2016/2017,2017,49.692427,-115.98366,,
35,2011,5901043,Martin Morigeau Elementary,Rocky Mountain,57,0,2016/2017,2017,50.160278,-115.80888,,
36,2011,5901028,Marysville Elementary,Rocky Mountain,183,0,2016/2017,2017,49.635052,-115.95118,,
37,2011,5901028,McKim Middle School,Rocky Mountain,356,0,2016/2017,2017,49.679464,-115.97917,,
38,2011,5939007,Nicholson Elementary,Rocky Mountain,89,0,2016/2017,2017,51.297778,-116.96472,,
39,2011,5901039,Open Doors Alternate Education,Rocky Mountain,0,34,2016/2017,2017,50.505833,-116.03055,,
40,2011,5901028,Rocky Mountain Distributed Learning,Rocky Mountain,7,114,2016/2017,2017,49.671138,-115.97978,,
41,2011,5901028,Selkirk Secondary School,Rocky Mountain,0,405,2016/2017,2017,49.686760,-115.98051,,
42,2011,5901046,Windermere Elementary,Rocky Mountain,153,0,2016/2017,2017,50.464998,-115.98632,,
43,2011,5903004,Adam Robertson Elementary,Kootenay Lake,321,0,2016/2017,2017,49.099756,-116.51480,,
44,2011,5903041,Blewett Elementary School,Kootenay Lake,158,0,2016/2017,2017,49.490770,-117.36917,,
45,2011,5903052,Brent Kennedy Elementary,Kootenay Lake,234,0,2016/2017,2017,49.441905,-117.54444,,
46,2011,5903013,Canyon/Lister Elementary,Kootenay Lake,131,0,2016/2017,2017,49.081958,-116.44777,,
47,2011,5903015,CHEK-ABC,Kootenay Lake,95,75,2016/2017,2017,49.505855,-117.26885,,
48,2011,5903010,Crawford Bay Elem-Secondary,Kootenay Lake,42,35,2016/2017,2017,49.680298,-116.82787,,
49,2011,5903015,Distance Ed School of the Kootenays,Kootenay Lake,38,388,2016/2017,2017,49.489110,-117.29320,,
50,2011,5903013,Erickson Elementary,Kootenay Lake,223,0,2016/2017,2017,49.091809,-116.46942,,
51,2011,5903004,Homelinks - Creston,Kootenay Lake,71,84,2016/2017,2017,49.097500,-116.51305,,
52,2011,5903023,Homelinks - Kaslo,Kootenay Lake,11,0,2016/2017,2017,49.911491,-116.91171,,
53,2011,5903015,Homelinks - Nelson,Kootenay Lake,32,10,2016/2017,2017,49.489759,-117.28628,,
54,2011,5903019,Homelinks - Slocan,Kootenay Lake,6,0,2016/2017,2017,49.763933,-117.46970,,
55,2011,5903015,Hume Elementary School,Kootenay Lake,189,0,2016/2017,2017,49.500075,-117.27935,,
56,2011,5903023,J V Humphries Elem-Secondary,Kootenay Lake,124,99,2016/2017,2017,49.912176,-116.91123,,
57,2011,5903039,Jewett Elementary,Kootenay Lake,9,0,2016/2017,2017,50.233333,-116.98333,,
58,2011,5903004,Kootenay Valley Christian School,Kootenay Lake,20,4,2016/2017,2017,49.108431,-116.52923,,
59,2011,5903015,L V Rogers Secondary,Kootenay Lake,0,735,2016/2017,2017,49.502218,-117.27262,,
60,2011,5903013,Mormon Hills Elementary Secondary,Kootenay Lake,86,69,2016/2017,2017,49.014565,-116.43221,,
61,2011,5903052,Mount Sentinel Secondary,Kootenay Lake,45,243,2016/2017,2017,49.466667,-117.51666,,
62,2011,5903015,Nelson Christian Community School,Kootenay Lake,43,4,2016/2017,2017,49.505855,-117.26885,,
63,2011,5903041,Nelson Waldorf School,Kootenay Lake,134,15,2016/2017,2017,49.458901,-117.28271,,
64,2011,5903043,Prince Charles Secondary,Kootenay Lake,0,481,2016/2017,2017,49.511361,-117.28962,,
65,2011,5903015,REACH,Kootenay Lake,0,22,2016/2017,2017,49.502218,-117.27262,,
66,2011,5903041,Redfish Elementary School,Kootenay Lake,87,0,2016/2017,2017,49.613791,-117.04830,,
67,2011,5903015,Rosemont Elementary School,Kootenay Lake,129,0,2016/2017,2017,49.481019,-117.30293,,
68,2011,5903011,Salmo Elementary School,Kootenay Lake,192,0,2016/2017,2017,49.193333,-117.27861,,
69,2011,5903011,Salmo Secondary,Kootenay Lake,23,106,2016/2017,2017,49.193333,-117.27861,,
70,2011,5903015,South Nelson Elementary,Kootenay Lake,185,0,2016/2017,2017,49.489759,-117.28628,,
71,2011,5903015,St Joseph School,Kootenay Lake,139,6,2016/2017,2017,49.489057,-117.29097,,
72,2011,5903015,Trafalgar Middle School,Kootenay Lake,232,140,2016/2017,2017,49.487164,-117.28783,,
73,2011,5903019,W.E. Graham Community School,Kootenay Lake,54,17,2016/2017,2017,49.767778,-117.46611,,
74,2011,5903015,Wildflower,Kootenay Lake,148,16,2016/2017,2017,49.489110,-117.29320,,
75,2011,5903052,Winlaw Elementary School,Kootenay Lake,95,0,2016/2017,2017,49.616667,-117.56666,,
76,2011,5903807,Yaqan Nukiy School,Kootenay Lake,83,0,2016/2017,2017,49.066109,-116.51565,,
77,2011,5903050,Arrow Lakes Distributed Learning,Arrow Lakes,20,18,2016/2017,2017,50.239167,-117.79750,,
312,2011,5909052,Mt Lehman Elementary,Abbotsford,163,0,2016/2017,2017,49.118283,-122.38227,,
313,2011,5909052,Pacific Christian School,Abbotsford,20,7,2016/2017,2017,49.075054,-122.40308,,
314,2011,5909052,Prince Charles Elementary,Abbotsford,296,0,2016/2017,2017,49.064502,-122.24424,,
315,2011,5909052,Rick Hansen Secondary,Abbotsford,0,591,2016/2017,2017,49.067600,-122.36116,,
316,2011,5909052,Robert Bateman Secondary,Abbotsford,0,961,2016/2017,2017,49.068178,-122.25370,,
317,2011,5909052,Ross Elementary,Abbotsford,215,0,2016/2017,2017,49.047253,-122.40376,,
318,2011,5909052,Sandy Hill Elementary,Abbotsford,584,0,2016/2017,2017,49.071444,-122.24935,,
319,2011,5909052,South Poplar Traditional Elementary,Abbotsford,293,0,2016/2017,2017,49.016847,-122.31670,,
320,2011,5909052,St James,Abbotsford,219,0,2016/2017,2017,49.052375,-122.36007,,
321,2011,5909052,St John Brebeuf,Abbotsford,0,409,2016/2017,2017,49.052086,-122.36008,,
322,2011,5909052,Ten Broeck Elementary,Abbotsford,307,0,2016/2017,2017,49.048775,-122.34495,,
323,2011,5909052,Terry Fox Elementary,Abbotsford,292,0,2016/2017,2017,49.057768,-122.30031,,
324,2011,5909052,Upper Sumas Elementary,Abbotsford,213,0,2016/2017,2017,49.017118,-122.21869,,
325,2011,5909052,W J Mouat Secondary,Abbotsford,0,1349,2016/2017,2017,49.058796,-122.33083,,
326,2011,5909052,West Coast Adventist DL School,Abbotsford,41,46,2016/2017,2017,49.050000,-122.28333,,
327,2011,5909052,William A. Fraser Middle School,Abbotsford,444,269,2016/2017,2017,49.045043,-122.26334,,
328,2011,5909052,Yale Secondary,Abbotsford,0,1300,2016/2017,2017,49.048370,-122.26577,,
329,2011,5915001,Advance Alternate,Langley,0,23,2016/2017,2017,49.053850,-122.48117,,
330,2011,5915001,Aldergrove Christian Academy,Langley,20,2,2016/2017,2017,49.075689,-122.53772,,
331,2011,5915001,Aldergrove Community Secondary,Langley,0,618,2016/2017,2017,49.053850,-122.48117,,
332,2011,5915001,Alex Hope Elementary,Langley,598,0,2016/2017,2017,49.156677,-122.63602,,
333,2011,5915002,Alice Brown Elementary,Langley,230,0,2016/2017,2017,49.082188,-122.66872,,
334,2011,5915001,Belmont Elementary,Langley,577,0,2016/2017,2017,49.074005,-122.65974,,
335,2011,5915001,Betty Gilbert Middle,Langley,260,160,2016/2017,2017,49.051781,-122.48036,,
336,2011,5915002,Blacklock Fine Arts Elementary,Langley,254,0,2016/2017,2017,49.095314,-122.65183,,
337,2011,5915001,Brookswood Secondary,Langley,0,1120,2016/2017,2017,49.070208,-122.64454,,
338,2011,5915001,Choices Program,Langley,0,102,2016/2017,2017,49.104445,-122.62895,,
339,2011,5915001,Coghlan Fundamental Elementary,Langley,230,0,2016/2017,2017,49.082723,-122.51378,,
340,2011,5915001,Credo Christian Schools,Langley,223,299,2016/2017,2017,49.095755,-122.61797,,
341,2011,5915001,D W Poppy Secondary,Langley,0,828,2016/2017,2017,49.095366,-122.56604,,
342,2011,5915001,Dorothy Peacock Elementary,Langley,440,0,2016/2017,2017,49.167822,-122.66029,,
343,2011,5915002,Douglas Park Community,Langley,227,0,2016/2017,2017,49.100816,-122.65186,,
344,2011,5915001,Focus Alternate,Langley,0,33,2016/2017,2017,49.105450,-122.62892,,
345,2011,5915001,Fort Langley Elementary,Langley,260,0,2016/2017,2017,49.164141,-122.58260,,
346,2011,5915001,Fraser Valley Adventist Academy,Langley,112,105,2016/2017,2017,49.088334,-122.50268,,
347,2011,5915001,Fraser Valley Elementary,Langley,83,0,2016/2017,2017,49.124812,-122.65943,,
348,2011,5915001,Glenwood Elementary,Langley,170,0,2016/2017,2017,49.046304,-122.64812,,
349,2011,5915001,Gordon Greenwood Elementary,Langley,433,0,2016/2017,2017,49.169186,-122.65275,,
350,2011,5915002,H D Stafford Middle,Langley,391,192,2016/2017,2017,49.088899,-122.65617,,
351,2011,5915001,James Hill Elementary,Langley,295,0,2016/2017,2017,49.084176,-122.61008,,
352,2011,5915001,James Kennedy Elementary,Langley,668,0,2016/2017,2017,49.166979,-122.63367,,
353,2011,5915001,King's School,Langley,88,35,2016/2017,2017,49.133333,-122.61666,,
354,2011,5915001,Langley Christian,Langley,632,402,2016/2017,2017,49.087501,-122.58928,,
355,2011,5915001,Langley Education Centre,Langley,0,271,2016/2017,2017,49.104445,-122.62895,,
356,2011,5915001,Langley Fine Arts School,Langley,396,536,2016/2017,2017,49.168156,-122.58691,,
357,2011,5915001,Langley Fundamental Elementary,Langley,520,0,2016/2017,2017,49.093879,-122.62026,,
358,2011,5915001,Langley Fundamental Middle/Secondary Sch,Langley,180,547,2016/2017,2017,49.077442,-122.63494,,
359,2011,5915001,Langley Meadows Elementary,Langley,426,0,2016/2017,2017,49.121102,-122.67212,,
360,2011,5915001,Langley Montessori School,Langley,68,0,2016/2017,2017,49.090615,-122.62786,,
361,2011,5915001,Langley Online and Distributed Learning,Langley,0,393,2016/2017,2017,49.104445,-122.62895,,
362,2011,5915001,Langley Secondary,Langley,0,819,2016/2017,2017,49.105450,-122.62892,,
363,2011,5915001,U-Connect,Langley,79,96,2016/2017,2017,49.028457,-122.60275,,
364,2011,5915001,Lynn Fripps Elementary,Langley,435,0,2016/2017,2017,49.151962,-122.63940,,
365,2011,5915002,Nicomekl Elementary,Langley,256,0,2016/2017,2017,49.098433,-122.66728,,
366,2011,5915001,Noel Booth Elementary,Langley,300,0,2016/2017,2017,49.065036,-122.66184,,
367,2011,5915001,North Otter Elementary,Langley,274,0,2016/2017,2017,49.099790,-122.53544,,
368,2011,5915001,Parkside Centennial Elementary,Langley,460,0,2016/2017,2017,49.062746,-122.47508,,
369,2011,5915001,Peterson Road Elementary,Langley,270,0,2016/2017,2017,49.086052,-122.57461,,
370,2011,5915001,R C Garnett Demonstration Elementary,Langley,432,0,2016/2017,2017,49.131660,-122.66332,,
371,2011,5915001,R E Mountain Secondary,Langley,0,1123,2016/2017,2017,49.144283,-122.66318,,
372,2011,5915001,Richard Bulpitt Elementary,Langley,526,0,2016/2017,2017,49.143786,-122.64158,,
373,2011,5915001,Shortreed Community School,Langley,316,0,2016/2017,2017,49.052338,-122.46625,,
374,2011,5915002,Simonds Elementary,Langley,140,0,2016/2017,2017,49.089552,-122.66210,,
375,2011,5915001,St Catherines School,Langley,228,0,2016/2017,2017,49.059631,-122.66252,,
376,2011,5915001,Topham Elementary,Langley,364,0,2016/2017,2017,49.168315,-122.62569,,
377,2011,5915002,Uplands Elementary,Langley,264,0,2016/2017,2017,49.083092,-122.64866,,
378,2011,5915001,Walnut Grove Secondary,Langley,0,1924,2016/2017,2017,49.165804,-122.64184,,
379,2011,5915001,West Langley Elementary,Langley,260,0,2016/2017,2017,49.174650,-122.63639,,
380,2011,5915002,Whytecliff Agile Learning Centre-Langley,Langley,0,41,2016/2017,2017,49.106021,-122.65312,,
381,2011,5915001,Willoughby Elementary,Langley,362,0,2016/2017,2017,49.147097,-122.64679,,
382,2011,5915001,Wix-Brown Elementary,Langley,150,0,2016/2017,2017,49.045775,-122.56372,,
383,2011,5915001,Yorkson Creek Middle School,Langley,673,304,2016/2017,2017,49.154926,-122.64956,,
384,2011,5915004,A H P Matthew Elementary,Surrey,398,0,2016/2017,2017,49.178951,-122.85215,,
385,2011,5915004,A J McLellan Elementary,Surrey,511,0,2016/2017,2017,49.113413,-122.76355,,
386,2011,5915004,Adams Road Elementary,Surrey,551,0,2016/2017,2017,49.125902,-122.71712,,
387,2011,5915004,Bayridge Elementary,Surrey,321,0,2016/2017,2017,49.033423,-122.82840,,
388,2011,5915004,Bear Creek Elementary,Surrey,495,0,2016/2017,2017,49.148003,-122.84094,,
389,2011,5915004,Beaver Creek Elementary,Surrey,494,0,2016/2017,2017,49.121262,-122.88051,,
390,2011,5915004,Berkshire Park Elementary,Surrey,451,0,2016/2017,2017,49.173323,-122.79654,,
391,2011,5915004,Betty Huff Elementary,Surrey,380,0,2016/2017,2017,49.172463,-122.86040,,
392,2011,5915004,Bibleway Christian Academy,Surrey,46,51,2016/2017,2017,49.111390,-122.70558,,
393,2011,5915004,Bonaccord Elementary,Surrey,499,0,2016/2017,2017,49.180349,-122.80684,,
394,2011,5915004,Bothwell Elementary School,Surrey,211,0,2016/2017,2017,49.187787,-122.74857,,
78,2011,5903050,Burton Academy School,Arrow Lakes,0,11,2016/2017,2017,50.239167,-117.79750,,
79,2011,5903060,Edgewood Elementary,Arrow Lakes,19,0,2016/2017,2017,49.780833,-118.14305,,
80,2011,5903032,Lucerne Elem-Secondary,Arrow Lakes,53,25,2016/2017,2017,49.991389,-117.37722,,
81,2011,5903050,Nakusp Elementary,Arrow Lakes,164,0,2016/2017,2017,50.239167,-117.79750,,
82,2011,5903050,Nakusp Secondary,Arrow Lakes,0,147,2016/2017,2017,50.239167,-117.79750,,
83,2011,5939019,Arrow Heights Elementary,Revelstoke,134,0,2016/2017,2017,50.976789,-118.17818,,
84,2011,5939019,Begbie View Elementary,Revelstoke,259,0,2016/2017,2017,50.997342,-118.19737,,
85,2011,5939019,Columbia Park Elementary,Revelstoke,198,0,2016/2017,2017,51.015076,-118.21914,,
86,2011,5939019,Revelstoke Secondary,Revelstoke,0,383,2016/2017,2017,50.991520,-118.19755,,
87,2011,5903045,Continuing Ed SD 20,Kootenay-Columbia,0,4,2016/2017,2017,49.322379,-117.65953,,
88,2011,5905005,Fruitvale Elementary,Kootenay-Columbia,343,0,2016/2017,2017,49.111524,-117.54428,,
89,2011,5905014,Glenmerry Elementary,Kootenay-Columbia,376,0,2016/2017,2017,49.098802,-117.66131,,
90,2011,5905014,J Lloyd Crowe Secondary,Kootenay-Columbia,0,796,2016/2017,2017,49.102940,-117.69901,,
91,2011,5905018,James L Webster Elementary,Kootenay-Columbia,272,0,2016/2017,2017,49.095372,-117.74500,,
92,2011,5903045,Kinnaird Elementary,Kootenay-Columbia,329,0,2016/2017,2017,49.288651,-117.65442,,
93,2011,5905014,Kootenay-Columbia Learning Centre,Kootenay-Columbia,4,88,2016/2017,2017,49.097067,-117.69487,,
94,2011,5903058,Robson Community School,Kootenay-Columbia,169,0,2016/2017,2017,49.334445,-117.69138,,
95,2011,5905023,Rossland Summit School,Kootenay-Columbia,345,51,2016/2017,2017,49.080751,-117.79978,,
96,2011,5905014,St Michael's Elementary,Kootenay-Columbia,161,0,2016/2017,2017,49.101529,-117.70196,,
97,2011,5903045,Stanley Humphries Secondary,Kootenay-Columbia,0,556,2016/2017,2017,49.319958,-117.65970,,
98,2011,5903045,Twin Rivers Elementary,Kootenay-Columbia,428,0,2016/2017,2017,49.321396,-117.65956,,
99,2011,5937014,Alexis Park Elementary,Vernon,298,0,2016/2017,2017,50.273490,-119.27969,,
100,2011,5937014,Alternative Learning Program,Vernon,0,43,2016/2017,2017,50.251843,-119.25110,,
101,2011,5937021,B X Elementary,Vernon,401,0,2016/2017,2017,50.290300,-119.22332,,
102,2011,5937014,Beairsto Elementary,Vernon,605,0,2016/2017,2017,50.266041,-119.26670,,
103,2011,5937005,Charles Bloom Elementary Secondary,Vernon,61,289,2016/2017,2017,50.250833,-118.96194,,
104,2011,5937023,Cherryville Elementary,Vernon,71,0,2016/2017,2017,50.244292,-118.61515,,
105,2011,5937014,Clarence Fulton Secondary,Vernon,0,646,2016/2017,2017,50.247889,-119.30880,,
106,2011,5937010,Coldstream Elementary,Vernon,407,0,2016/2017,2017,50.223610,-119.23319,,
107,2011,5937014,Continuing Ed SD 22,Vernon,0,26,2016/2017,2017,50.262970,-119.26903,,
108,2011,5937005,Crossroads Alternate School,Vernon,0,10,2016/2017,2017,50.250833,-118.96194,,
109,2011,5937014,Ellison Elementary,Vernon,344,0,2016/2017,2017,50.266667,-119.27166,,
110,2011,5937014,Harwood Elementary,Vernon,417,0,2016/2017,2017,50.276049,-119.25853,,
111,2011,5937021,Hillview Elementary,Vernon,358,0,2016/2017,2017,50.254407,-119.23674,,
112,2011,5937005,J W Inglis Elementary,Vernon,320,0,2016/2017,2017,50.252619,-118.96687,,
113,2011,5937010,Kalamalka Secondary,Vernon,0,511,2016/2017,2017,50.224488,-119.24815,,
114,2011,5937010,Kidston Elementary,Vernon,277,0,2016/2017,2017,50.222504,-119.25816,,
115,2011,5937010,Lavington Elementary,Vernon,136,0,2016/2017,2017,50.231484,-119.10727,,
116,2011,5937014,Mission Hill Elementary,Vernon,308,0,2016/2017,2017,50.254080,-119.28176,,
117,2011,5937014,Okanagan Landing Elementary,Vernon,342,0,2016/2017,2017,50.237487,-119.34406,,
118,2011,5937014,Open Door Alternate School,Vernon,0,39,2016/2017,2017,50.262970,-119.26903,,
119,2011,5937014,Pleasant Valley Christian Academy,Vernon,13,0,2016/2017,2017,50.277564,-119.25448,,
120,2011,5937014,Silver Star Elementary,Vernon,471,0,2016/2017,2017,50.267462,-119.25050,,
121,2011,5937014,St James,Vernon,147,0,2016/2017,2017,50.262184,-119.26654,,
122,2011,5937017,Vernon Christian School,Vernon,200,142,2016/2017,2017,50.309280,-119.24551,,
123,2011,5937014,Vernon Secondary,Vernon,0,1016,2016/2017,2017,50.256934,-119.25110,,
124,2011,5937014,vLearn.ca,Vernon,80,404,2016/2017,2017,50.261688,-119.28573,,
125,2011,5937014,W L Seaton Secondary,Vernon,0,856,2016/2017,2017,50.272477,-119.26745,,
126,2011,5935010,A S Matheson Elementary,Central Okanagan,232,0,2016/2017,2017,49.876061,-119.47862,,
127,2011,5935010,Aberdeen Hall Preparatory School,Central Okanagan,292,0,2016/2017,2017,49.935009,-119.40238,,
128,2011,5935010,Aberdeen Hall Senior,Central Okanagan,36,228,2016/2017,2017,49.935009,-119.40238,,
129,2011,5935010,Adult Education SD#23,Central Okanagan,0,18,2016/2017,2017,49.881247,-119.48743,,
130,2011,5935010,Anne McClymont Elementary,Central Okanagan,542,0,2016/2017,2017,49.820232,-119.49005,,
131,2011,5935010,Bankhead Elementary,Central Okanagan,276,0,2016/2017,2017,49.891889,-119.47211,,
132,2011,5935010,Belgo Elementary School,Central Okanagan,326,0,2016/2017,2017,49.882257,-119.38985,,
133,2011,5935010,Black Mountain Elementary,Central Okanagan,408,0,2016/2017,2017,49.867177,-119.34925,,
134,2011,5935010,Casorso Elementary,Central Okanagan,532,0,2016/2017,2017,49.852912,-119.48057,,
135,2011,5935010,Central School Programs,Central Okanagan,1,260,2016/2017,2017,49.881247,-119.48743,,
136,2011,5935029,Chief Tomat Elementary,Central Okanagan,270,0,2016/2017,2017,49.841811,-119.58868,,
137,2011,5935010,Chute Lake Elementary,Central Okanagan,492,0,2016/2017,2017,49.795854,-119.50960,,
138,2011,5935029,Constable Neil Bruce Middle School,Central Okanagan,226,517,2016/2017,2017,49.857264,-119.59714,,
139,2011,5935016,Davidson Road Elementary,Central Okanagan,482,0,2016/2017,2017,50.051513,-119.43085,,
140,2011,5935010,Dorothea Walker Elementary,Central Okanagan,470,0,2016/2017,2017,49.826619,-119.48436,,
141,2011,5935010,Dr Knox Middle School,Central Okanagan,244,490,2016/2017,2017,49.922081,-119.43501,,
142,2011,5935012,Ellison Elementary,Central Okanagan,183,0,2016/2017,2017,49.938551,-119.35557,,
143,2011,5935016,George Elliot Secondary,Central Okanagan,125,735,2016/2017,2017,50.031271,-119.40207,,
144,2011,5935029,George Pringle Elementary,Central Okanagan,495,0,2016/2017,2017,49.827070,-119.63228,,
145,2011,5935010,Glenmore Elementary,Central Okanagan,649,0,2016/2017,2017,49.897629,-119.45596,,
146,2011,5935029,Glenrosa Elementary,Central Okanagan,239,0,2016/2017,2017,49.839868,-119.65404,,
147,2011,5935029,Glenrosa Middle School,Central Okanagan,173,314,2016/2017,2017,49.833092,-119.65856,,
148,2011,5935029,Helen Gorman Elementary,Central Okanagan,237,0,2016/2017,2017,49.845874,-119.67214,,
149,2011,5935010,Heritage Christian Online School (DL),Central Okanagan,1725,2494,2016/2017,2017,49.890622,-119.40459,,
150,2011,5935010,Heritage Christian School,Central Okanagan,193,161,2016/2017,2017,49.890622,-119.40459,,
151,2011,5935029,Hudson Road Elementary,Central Okanagan,306,0,2016/2017,2017,49.862480,-119.56444,,
152,2011,5935010,Immaculata Regional High School,Central Okanagan,0,255,2016/2017,2017,49.859243,-119.46561,,
153,2011,5935010,Kelowna Christian School,Central Okanagan,403,256,2016/2017,2017,49.863489,-119.45732,,
154,2011,5935010,Kelowna Secondary,Central Okanagan,0,1813,2016/2017,2017,49.864218,-119.47884,,
155,2011,5935010,Kelowna Waldorf School,Central Okanagan,128,0,2016/2017,2017,49.817053,-119.49916,,
156,2011,5935010,KLEOS Open Learning (DL),Central Okanagan,85,98,2016/2017,2017,49.885123,-119.49804,,
157,2011,5935010,KLO Middle School,Central Okanagan,273,604,2016/2017,2017,49.860069,-119.47597,,
158,2011,5935029,Mar Jok Elementary,Central Okanagan,461,0,2016/2017,2017,49.877006,-119.57178,,
159,2011,5935029,Mount Boucherie Senior Secondary,Central Okanagan,0,1263,2016/2017,2017,49.858998,-119.58271,,
160,2011,5935010,North Glenmore Elementary,Central Okanagan,500,0,2016/2017,2017,49.928553,-119.43595,,
161,2011,5935010,Okanagan Adventist Academy,Central Okanagan,41,30,2016/2017,2017,49.876919,-119.39613,,
162,2011,5935010,Okanagan Mission Secondary,Central Okanagan,208,1157,2016/2017,2017,49.818477,-119.48590,,
163,2011,5935010,Kelowna Montessori School,Central Okanagan,34,0,2016/2017,2017,49.866742,-119.40550,,
164,2011,5935029,Our Lady of Lourdes,Central Okanagan,137,0,2016/2017,2017,49.828149,-119.63287,,
165,2011,5935016,Oyama Traditional School,Central Okanagan,141,0,2016/2017,2017,50.106911,-119.36786,,
166,2011,5935018,Peachland Elementary,Central Okanagan,209,0,2016/2017,2017,49.785711,-119.71825,,
167,2011,5935010,Pearson Road Elementary,Central Okanagan,238,0,2016/2017,2017,49.899747,-119.39962,,
168,2011,5935016,Peter Greer Elementary,Central Okanagan,411,0,2016/2017,2017,50.031602,-119.38876,,
169,2011,5935010,Quigley Elementary,Central Okanagan,258,0,2016/2017,2017,49.880756,-119.40001,,
170,2011,5935010,Raymer Elementary,Central Okanagan,239,0,2016/2017,2017,49.864377,-119.48897,,
171,2011,5935029,Rose Valley Elementary,Central Okanagan,337,0,2016/2017,2017,49.887066,-119.55634,,
172,2011,5935010,Rutland Elementary,Central Okanagan,422,0,2016/2017,2017,49.898987,-119.37582,,
173,2011,5935010,Rutland Middle School,Central Okanagan,363,175,2016/2017,2017,49.897505,-119.38462,,
174,2011,5935010,Rutland Senior Secondary,Central Okanagan,0,1573,2016/2017,2017,49.897505,-119.38462,,
175,2011,5935010,SD 23 Distributed Learning,Central Okanagan,18,942,2016/2017,2017,49.881247,-119.48743,,
176,2011,5935802,Sensisyusten House of Learning,Central Okanagan,73,0,2016/2017,2017,49.840507,-119.59484,,
177,2011,5935029,Shannon Lake Elementary,Central Okanagan,421,0,2016/2017,2017,49.852471,-119.61334,,
178,2011,5935010,South Kelowna Elementary,Central Okanagan,232,0,2016/2017,2017,49.834174,-119.42262,,
179,2011,5935010,South Rutland Elementary,Central Okanagan,193,0,2016/2017,2017,49.887265,-119.38258,,
180,2011,5935010,Springvalley Elementary,Central Okanagan,256,0,2016/2017,2017,49.884600,-119.41924,,
181,2011,5935010,Springvalley Middle School,Central Okanagan,304,133,2016/2017,2017,49.884600,-119.41924,,
182,2011,5935010,St Joseph Elementary School,Central Okanagan,257,0,2016/2017,2017,49.879509,-119.48440,,
183,2011,5935010,Studio 9 Independent School of the Arts,Central Okanagan,72,26,2016/2017,2017,49.892636,-119.40983,,
184,2011,5935010,Watson Road Elementary,Central Okanagan,558,0,2016/2017,2017,49.912659,-119.44937,,
185,2011,5935010,Willowstone Academy,Central Okanagan,115,0,2016/2017,2017,49.836689,-119.48621,,
186,2011,5941005,100 Mile House Elementary,Cariboo-Chilcotin,352,0,2016/2017,2017,51.645969,-121.29478,,
187,2011,5941014,150 Mile Elementary,Cariboo-Chilcotin,185,0,2016/2017,2017,52.107291,-121.92832,,
188,2011,5941041,Alexis Creek Elementary/Secondary,Cariboo-Chilcotin,18,20,2016/2017,2017,52.083333,-123.28333,,
189,2011,5941840,Anahim Lake Elem-Jr Secondary,Cariboo-Chilcotin,33,13,2016/2017,2017,52.466667,-125.31666,,
190,2011,5955023,Big Lake Elementary,Cariboo-Chilcotin,22,0,2016/2017,2017,56.051661,-121.23754,,
191,2011,5941009,Cariboo Adventist Academy,Cariboo-Chilcotin,66,42,2016/2017,2017,52.112987,-122.11158,,
192,2011,5941009,Cataline Elementary,Cariboo-Chilcotin,330,0,2016/2017,2017,52.150178,-122.15097,,
193,2011,5941012,Chilcotin Road Elementary,Cariboo-Chilcotin,226,0,2016/2017,2017,52.115114,-122.17300,,
194,2011,5941012,Dog Creek Elem-Jr. Secondary,Cariboo-Chilcotin,12,5,2016/2017,2017,52.102778,-122.12500,,
195,2011,5941016,Forest Grove Elementary,Cariboo-Chilcotin,57,0,2016/2017,2017,51.766667,-121.10000,,
196,2011,5941009,Graduation Routes Other Ways,Cariboo-Chilcotin,39,112,2016/2017,2017,52.133413,-122.14570,,
197,2011,5941009,GROW Continuing Education Centre,Cariboo-Chilcotin,0,23,2016/2017,2017,52.133413,-122.14570,,
198,2011,5941017,Horse Lake Elementary,Cariboo-Chilcotin,187,0,2016/2017,2017,51.573762,-121.13800,,
199,2011,5941014,Horsefly Elem-Jr Secondary,Cariboo-Chilcotin,53,11,2016/2017,2017,52.333333,-121.41666,,
200,2011,5941015,Lac La Hache Elementary,Cariboo-Chilcotin,12,0,2016/2017,2017,51.816667,-121.46666,,
201,2011,5941009,Lake City Secondary,Cariboo-Chilcotin,219,1113,2016/2017,2017,52.135557,-122.13852,,
202,2011,5941014,Likely Elem-Jr Secondary,Cariboo-Chilcotin,9,0,2016/2017,2017,52.616667,-121.55000,,
203,2011,5941009,Maranatha Christian School,Cariboo-Chilcotin,81,56,2016/2017,2017,52.125602,-122.11827,,
204,2011,5941009,Marie Sharpe Elementary,Cariboo-Chilcotin,180,0,2016/2017,2017,52.133286,-122.14458,,
205,2011,5941015,Mile 108 Elementary,Cariboo-Chilcotin,200,0,2016/2017,2017,51.727252,-121.33233,,
206,2011,5941012,Mountview Elementary,Cariboo-Chilcotin,187,0,2016/2017,2017,52.099432,-122.12376,,
207,2011,5941039,Naghtaneqed Elem-Jr Secondary,Cariboo-Chilcotin,21,2,2016/2017,2017,51.483333,-123.88333,,
208,2011,5941009,Nesika Elementary,Cariboo-Chilcotin,330,0,2016/2017,2017,52.146288,-122.15467,,
209,2011,5941005,Peter Skene Ogden Secondary,Cariboo-Chilcotin,0,558,2016/2017,2017,51.636887,-121.30062,,
210,2011,5941005,PSO Outback Storefront,Cariboo-Chilcotin,0,16,2016/2017,2017,51.636887,-121.30062,,
211,2011,5941009,Sacred Heart Catholic School,Cariboo-Chilcotin,106,0,2016/2017,2017,52.136127,-122.14655,,
212,2011,5941009,Skyline Alternate School,Cariboo-Chilcotin,0,129,2016/2017,2017,52.133413,-122.14570,,
213,2011,5941039,Tatla Lake Elem-Jr Secondary,Cariboo-Chilcotin,13,4,2016/2017,2017,51.900000,-124.60000,,
214,2011,5941041,Yunesit'in ?Esgul,Cariboo-Chilcotin,23,4,2016/2017,2017,51.919445,-123.04166,,
215,2011,5941026,Barlow Creek Elementary,Quesnel,99,0,2016/2017,2017,53.020839,-122.45581,,
216,2011,5941021,Bouchie Lake Elementary School,Quesnel,146,0,2016/2017,2017,52.999873,-122.52879,,
217,2011,5941013,Carson Elementary School,Quesnel,162,0,2016/2017,2017,52.975569,-122.47727,,
218,2011,5941013,Continuing Ed SD 28,Quesnel,0,28,2016/2017,2017,52.976555,-122.49361,,
219,2011,5941013,Correlieu Secondary School,Quesnel,0,712,2016/2017,2017,52.966845,-122.51796,,
220,2011,5941013,Dragon Lake Elementary,Quesnel,201,0,2016/2017,2017,52.979722,-122.49361,,
221,2011,5941013,Kersley Elementary School,Quesnel,59,0,2016/2017,2017,52.979722,-122.49361,,
222,2011,5941019,Lakeview Elementary,Quesnel,266,0,2016/2017,2017,52.954021,-122.44428,,
223,2011,5941013,McNaughton Centre,Quesnel,0,57,2016/2017,2017,52.982380,-122.49414,,
224,2011,5941013,Nazko Valley Elementary,Quesnel,29,0,2016/2017,2017,52.979722,-122.49361,,
225,2011,5941019,North Cariboo Christian School,Quesnel,82,13,2016/2017,2017,52.924071,-122.46514,,
226,2011,5941021,Parkland Elementary,Quesnel,76,0,2016/2017,2017,53.084623,-122.43809,,
227,2011,5941013,Quesnel Distributed Learning,Quesnel,2,25,2016/2017,2017,52.981372,-122.46602,,
228,2011,5941013,Quesnel Junior School,Quesnel,0,416,2016/2017,2017,52.982350,-122.49144,,
229,2011,5941019,Red Bluff Lhtako Elementary,Quesnel,288,0,2016/2017,2017,52.964537,-122.46639,,
230,2011,5941013,Riverview Elementary,Quesnel,177,0,2016/2017,2017,52.977136,-122.50698,,
231,2011,5941013,St Ann's School,Quesnel,106,0,2016/2017,2017,52.987432,-122.49938,,
232,2011,5941013,Voyageur Elementary School,Quesnel,304,0,2016/2017,2017,52.977390,-122.52526,,
233,2011,5941025,Wells Barkerville Elementary,Quesnel,20,0,2016/2017,2017,53.104445,-121.57250,,
234,2011,5909020,A D Rundle Middle School,Chilliwack,115,207,2016/2017,2017,49.159393,-121.96136,,
235,2011,5909020,Bernard Elementary,Chilliwack,288,0,2016/2017,2017,49.163526,-121.96593,,
236,2011,5909020,Cascade Christian School,Chilliwack,84,19,2016/2017,2017,49.158899,-121.93941,,
237,2011,5909020,Cheam Elementary,Chilliwack,200,0,2016/2017,2017,49.181743,-121.89352,,
238,2011,5909020,Chilliwack Adventist Christian School,Chilliwack,17,0,2016/2017,2017,49.180425,-121.95144,,
239,2011,5909020,Chilliwack Central Elementary Community,Chilliwack,246,0,2016/2017,2017,49.173511,-121.95265,,
240,2011,5909020,Chilliwack Middle School,Chilliwack,190,368,2016/2017,2017,49.174454,-121.94296,,
241,2011,5909020,Chilliwack Secondary,Chilliwack,0,1059,2016/2017,2017,49.174588,-121.94280,,
242,2011,5909020,Continuing Ed SD 33,Chilliwack,0,41,2016/2017,2017,49.162990,-121.94752,,
243,2011,5909036,Cultus Lake Community School,Chilliwack,172,0,2016/2017,2017,49.072988,-121.97632,,
244,2011,5909020,East Chilliwack Elementary,Chilliwack,297,0,2016/2017,2017,49.161728,-121.86353,,
245,2011,5909020,Evans Elementary,Chilliwack,328,0,2016/2017,2017,49.139845,-121.97756,,
246,2011,5909020,F G Leary Fine Arts Elementary,Chilliwack,333,0,2016/2017,2017,49.171041,-121.92165,,
247,2011,5909020,Fraser Valley Distance Education,Chilliwack,100,1257,2016/2017,2017,49.174551,-121.94290,,
248,2011,5909020,Greendale Elementary,Chilliwack,153,0,2016/2017,2017,49.122226,-122.04560,,
249,2011,5909020,GW Graham Middle Secondary,Chilliwack,150,847,2016/2017,2017,49.106644,-121.95279,,
250,2011,5909020,Highroad Academy,Chilliwack,259,168,2016/2017,2017,49.161983,-121.93394,,
251,2011,5909020,John Calvin School,Chilliwack,241,0,2016/2017,2017,49.079523,-122.06760,,
252,2011,5909020,Little Mountain Elementary,Chilliwack,357,0,2016/2017,2017,49.180960,-121.92914,,
253,2011,5909020,McCammon Traditional Elementary,Chilliwack,277,0,2016/2017,2017,49.176547,-121.96774,,
254,2011,5909020,Mount Cheam Christian School,Chilliwack,245,114,2016/2017,2017,49.177425,-121.87024,,
255,2011,5909020,Mount Slesse Middle School,Chilliwack,209,399,2016/2017,2017,49.108650,-121.97679,,
256,2011,5909020,Promontory Heights Community Elementary,Chilliwack,621,0,2016/2017,2017,49.100985,-121.94496,,
257,2011,5909020,Robertson Elementary,Chilliwack,264,0,2016/2017,2017,49.157318,-121.94891,,
258,2011,5909020,Rosedale Mennonite School,Chilliwack,6,4,2016/2017,2017,49.183333,-121.80000,,
259,2011,5909020,Rosedale Traditional Community,Chilliwack,324,174,2016/2017,2017,49.175425,-121.81739,,
260,2011,5909020,Sardis Elementary,Chilliwack,511,0,2016/2017,2017,49.127758,-121.95735,,
261,2011,5909020,Sardis Secondary,Chilliwack,0,1233,2016/2017,2017,49.122757,-121.96634,,
262,2011,5909020,St Mary's,Chilliwack,202,0,2016/2017,2017,49.163890,-121.96201,,
263,2011,5909020,Strathcona Elementary,Chilliwack,437,0,2016/2017,2017,49.186828,-121.94147,,
264,2011,5909020,Timothy Christian School,Chilliwack,161,126,2016/2017,2017,49.190694,-121.82939,,
265,2011,5909020,Tyson Elementary,Chilliwack,286,0,2016/2017,2017,49.118343,-121.97458,,
266,2011,5909020,Unity Christian School,Chilliwack,268,166,2016/2017,2017,49.166667,-121.95000,,
267,2011,5909020,Unsworth Elementary,Chilliwack,513,0,2016/2017,2017,49.105045,-121.99756,,
268,2011,5909020,Vedder Elementary,Chilliwack,485,0,2016/2017,2017,49.111266,-121.95696,,
269,2011,5909020,Vedder Middle School,Chilliwack,248,358,2016/2017,2017,49.118375,-121.96387,,
270,2011,5909020,Watson Elementary,Chilliwack,479,0,2016/2017,2017,49.111222,-121.97066,,
271,2011,5909020,Yarrow Community School,Chilliwack,309,0,2016/2017,2017,49.085945,-122.04558,,
272,2011,5909052,Abbotsford Christian School,Abbotsford,582,401,2016/2017,2017,49.061563,-122.25555,,
273,2011,5909052,Abbotsford Middle School,Abbotsford,427,243,2016/2017,2017,49.041975,-122.30318,,
274,2011,5909052,Abbotsford Senior Secondary School,Abbotsford,0,1061,2016/2017,2017,49.042068,-122.29787,,
275,2011,5909052,Abbotsford Traditional Middle School,Abbotsford,269,120,2016/2017,2017,49.043314,-122.35530,,
276,2011,5909052,Abbotsford Traditional Senior Secondary,Abbotsford,0,466,2016/2017,2017,49.043314,-122.35530,,
277,2011,5909052,Abbotsford Virtual School,Abbotsford,69,501,2016/2017,2017,49.051229,-122.28404,,
278,2011,5909052,Aberdeen Elementary,Abbotsford,193,0,2016/2017,2017,49.056573,-122.42620,,
279,2011,5909052,Alexander Elementary,Abbotsford,215,0,2016/2017,2017,49.042710,-122.28826,,
280,2011,5909052,ASIA - North Poplar,Abbotsford,429,0,2016/2017,2017,49.038329,-122.33593,,
281,2011,5909052,ASIA - Sumas Mountain 6-9,Abbotsford,136,60,2016/2017,2017,49.050287,-122.22158,,
282,2011,5909052,ASIA - Sumas Mountain 9-12,Abbotsford,0,173,2016/2017,2017,49.050287,-122.22158,,
283,2011,5909052,Auguston Traditional Elementary,Abbotsford,371,0,2016/2017,2017,49.084033,-122.21812,,
284,2011,5909052,Bakerview Ctr for Learning - Alt,Abbotsford,0,246,2016/2017,2017,49.038149,-122.32070,,
285,2011,5909052,Bakerview Ctr for Learning - CE,Abbotsford,0,2,2016/2017,2017,49.038149,-122.32070,,
286,2011,5909052,Barrowtown Elementary,Abbotsford,69,0,2016/2017,2017,49.095769,-122.09525,,
287,2011,5909052,Blue Jay Elementary,Abbotsford,402,0,2016/2017,2017,49.057164,-122.36530,,
288,2011,5909052,Bradner Elementary,Abbotsford,160,0,2016/2017,2017,49.098181,-122.42649,,
289,2011,5909052,Centennial Park Elementary,Abbotsford,275,0,2016/2017,2017,49.047997,-122.31543,,
290,2011,5909052,Chief Dan George Middle,Abbotsford,361,177,2016/2017,2017,49.066036,-122.31372,,
291,2011,5909052,Clayburn Middle School,Abbotsford,474,240,2016/2017,2017,49.069960,-122.25146,,
292,2011,5909052,Clearbrook Elementary,Abbotsford,477,0,2016/2017,2017,49.067647,-122.33813,,
293,2011,5909052,Colleen and Gordie Howe Middle School,Abbotsford,294,133,2016/2017,2017,49.059711,-122.33781,,
294,2011,5909052,Cornerstone Christian School,Abbotsford,128,23,2016/2017,2017,49.050000,-122.28333,,
295,2011,5909052,Dasmesh Punjabi School,Abbotsford,577,209,2016/2017,2017,49.108883,-122.29417,,
296,2011,5909052,Dave Kandal Elementary,Abbotsford,262,0,2016/2017,2017,49.066229,-122.37729,,
297,2011,5909052,Dogwood School,Abbotsford,19,26,2016/2017,2017,49.051239,-122.28629,,
298,2011,5909052,Dormick Park Elementary,Abbotsford,292,0,2016/2017,2017,49.043837,-122.33258,,
299,2011,5909052,Dr Roberta Bondar Elementary,Abbotsford,235,0,2016/2017,2017,49.071365,-122.31886,,
300,2011,5909052,Dr Thomas A Swift Elementary,Abbotsford,331,0,2016/2017,2017,49.066371,-122.26089,,
301,2011,5909052,Eugene Reimer Middle School,Abbotsford,219,146,2016/2017,2017,49.064787,-122.36103,,
302,2011,5909052,Godson Elementary,Abbotsford,359,0,2016/2017,2017,49.041886,-122.30647,,
303,2011,5909052,Harry Sayers Elementary,Abbotsford,436,0,2016/2017,2017,49.067681,-122.35635,,
304,2011,5909052,Jackson Elementary,Abbotsford,153,0,2016/2017,2017,49.031034,-122.30538,,
305,2011,5909052,John MacLure Community School,Abbotsford,284,0,2016/2017,2017,49.056371,-122.32166,,
306,2011,5909052,King Traditional Elementary,Abbotsford,400,0,2016/2017,2017,49.031241,-122.42722,,
307,2011,5909052,Margaret Stenersen Elementary,Abbotsford,446,0,2016/2017,2017,49.057872,-122.26986,,
308,2011,5909052,Matsqui Elementary,Abbotsford,122,0,2016/2017,2017,49.105490,-122.29246,,
309,2011,5909052,McMillan Elementary,Abbotsford,416,0,2016/2017,2017,49.044498,-122.25938,,
310,2011,5909052,Mennonite Educational Institute,Abbotsford,703,675,2016/2017,2017,49.076009,-122.34580,,
311,2011,5909052,Mountain Elementary,Abbotsford,384,0,2016/2017,2017,49.043344,-122.23287,,
647,2011,5915022,Britannia Community Secondary,Vancouver,0,560,2016/2017,2017,49.274767,-123.07195,,
648,2011,5915022,Captain James Cook Elementary,Vancouver,349,0,2016/2017,2017,49.219005,-123.03581,,
649,2011,5915022,Carnarvon Community Elementary,Vancouver,408,0,2016/2017,2017,49.256612,-123.17433,,
650,2011,5915022,Century High School,Vancouver,0,130,2016/2017,2017,49.263385,-123.14531,,
651,2011,5915022,Champlain Heights Annex,Vancouver,106,0,2016/2017,2017,49.214070,-123.03066,,
652,2011,5915022,Champlain Heights Community Elementary,Vancouver,251,0,2016/2017,2017,49.220357,-123.02779,,
653,2011,5915022,Charles Dickens Annex,Vancouver,117,0,2016/2017,2017,49.250210,-123.08285,,
654,2011,5915022,Charles Dickens Elementary,Vancouver,486,0,2016/2017,2017,49.254855,-123.08239,,
655,2011,5915022,Chief Maquinna Elementary,Vancouver,215,0,2016/2017,2017,49.268031,-123.05080,,
656,2011,5915022,Children's Hearing and Speech Centre BC,Vancouver,10,0,2016/2017,2017,49.252358,-123.04834,,
657,2011,5915022,Collingwood Neighbourhood School,Vancouver,118,0,2016/2017,2017,49.236397,-123.03224,,
658,2011,5915022,Columbia College,Vancouver,0,59,2016/2017,2017,49.271461,-123.09448,,
659,2011,5915022,Corpus Christi School,Vancouver,297,0,2016/2017,2017,49.226701,-123.05905,,
660,2011,5915022,Crofton House,Vancouver,359,500,2016/2017,2017,49.234682,-123.17575,,
661,2011,5915022,David Livingstone Elementary,Vancouver,330,0,2016/2017,2017,49.250674,-123.09767,,
662,2011,5915022,David Lloyd George Elementary,Vancouver,387,0,2016/2017,2017,49.210233,-123.13635,,
663,2011,5915022,David Oppenheimer Elementary,Vancouver,341,0,2016/2017,2017,49.213644,-123.05795,,
664,2011,5915022,David Thompson Secondary,Vancouver,0,1475,2016/2017,2017,49.220889,-123.07054,,
665,2011,5915022,Dr A R Lord Elementary,Vancouver,143,0,2016/2017,2017,49.279585,-123.03890,,
666,2011,5915022,Dr Annie B Jamieson Elementary,Vancouver,483,0,2016/2017,2017,49.227070,-123.12101,,
667,2011,5915022,Dr George M Weir Elementary,Vancouver,495,0,2016/2017,2017,49.229775,-123.04444,,
668,2011,5915022,Dr H N MacCorkindale Elementary,Vancouver,237,0,2016/2017,2017,49.227695,-123.03048,,
669,2011,5915022,Dr R E McKechnie Elementary,Vancouver,264,0,2016/2017,2017,49.217631,-123.15355,,
670,2011,5915020,Eaton Arrowsmith School,Vancouver,47,28,2016/2017,2017,49.261380,-123.24672,,
671,2011,5915022,Ecole Jules Quesnel Elementary,Vancouver,432,0,2016/2017,2017,49.259020,-123.19258,,
672,2011,5915022,Edith Cavell Elementary,Vancouver,322,0,2016/2017,2017,49.252883,-123.11713,,
673,2011,5915022,Elsie Roy Elementary,Vancouver,422,0,2016/2017,2017,49.272147,-123.12261,,
674,2011,5915022,Emily Carr Elementary,Vancouver,295,0,2016/2017,2017,49.249871,-123.12607,,
675,2011,5915022,Eric Hamber Secondary,Vancouver,0,1605,2016/2017,2017,49.240218,-123.12575,,
676,2011,5915022,False Creek Elementary,Vancouver,278,0,2016/2017,2017,49.267100,-123.12668,,
677,2011,5915022,Fawkes Academy,Vancouver,36,15,2016/2017,2017,49.204677,-123.13468,,
678,2011,5915022,Florence Nightingale Elementary,Vancouver,218,0,2016/2017,2017,49.260207,-123.09399,,
679,2011,5915022,Fraser Academy,Vancouver,88,162,2016/2017,2017,49.262661,-123.15727,,
680,2011,5915022,G T Cunningham Elementary,Vancouver,352,0,2016/2017,2017,49.236825,-123.05745,,
681,2011,5915022,Garibaldi Annex,Vancouver,47,0,2016/2017,2017,49.275390,-123.05005,,
682,2011,5915022,General Brock Elementary,Vancouver,228,0,2016/2017,2017,49.241543,-123.10038,,
683,2011,5915022,General Gordon Elementary,Vancouver,378,0,2016/2017,2017,49.257173,-123.20093,,
684,2011,5915022,General Wolfe Elementary,Vancouver,391,0,2016/2017,2017,49.247312,-123.10628,,
685,2011,5915022,Gladstone Secondary,Vancouver,0,1053,2016/2017,2017,49.248611,-123.06161,,
686,2011,5915022,Graham Bruce Community Elementary,Vancouver,223,0,2016/2017,2017,49.242313,-123.02540,,
687,2011,5915022,Grandview Elementary,Vancouver,135,0,2016/2017,2017,49.266412,-123.07361,,
688,2011,5915022,Hastings Community Elementary,Vancouver,643,0,2016/2017,2017,49.282524,-123.05064,,
689,2011,5915022,Henry Hudson Elementary,Vancouver,389,0,2016/2017,2017,49.272039,-123.14866,,
690,2011,5915022,Immaculate Conception School,Vancouver,204,0,2016/2017,2017,49.247591,-123.18770,,
691,2011,5915022,J.W. Sexsmith Community Elementary,Vancouver,352,0,2016/2017,2017,49.217202,-123.10838,,
692,2011,5915022,John Henderson Elementary,Vancouver,489,0,2016/2017,2017,49.222737,-123.09509,,
693,2011,5915022,John Norquay Elementary,Vancouver,631,0,2016/2017,2017,49.241497,-123.05112,,
694,2011,5915022,John Oliver Secondary,Vancouver,0,1072,2016/2017,2017,49.231979,-123.09268,,
695,2011,5915022,Kerrisdale Annex,Vancouver,95,0,2016/2017,2017,49.232821,-123.17693,,
696,2011,5915022,Kerrisdale Elementary,Vancouver,591,0,2016/2017,2017,49.235716,-123.17449,,
697,2011,5915022,Killarney Secondary,Vancouver,0,1930,2016/2017,2017,49.225593,-123.04417,,
698,2011,5915022,King David High School,Vancouver,0,234,2016/2017,2017,49.233448,-123.12279,,
699,2011,5915022,King George Secondary,Vancouver,0,468,2016/2017,2017,49.289913,-123.13607,,
700,2011,5915022,Kitsilano Secondary,Vancouver,0,1330,2016/2017,2017,49.262081,-123.16360,,
701,2011,5915022,L'Ecole Bilingue Elementary,Vancouver,513,0,2016/2017,2017,49.258318,-123.13036,,
702,2011,5915022,Laura Secord Elementary,Vancouver,647,0,2016/2017,2017,49.261737,-123.06073,,
703,2011,5915022,Little Flower Academy,Vancouver,0,479,2016/2017,2017,49.248431,-123.14226,,
704,2011,5915022,Lord Beaconsfield Elementary,Vancouver,229,0,2016/2017,2017,49.251966,-123.05268,,
705,2011,5915022,Lord Byng Secondary,Vancouver,0,1308,2016/2017,2017,49.258147,-123.19225,,
706,2011,5915022,Lord Kitchener Elementary,Vancouver,454,0,2016/2017,2017,49.250148,-123.18115,,
707,2011,5915022,Lord Nelson Elementary,Vancouver,444,0,2016/2017,2017,49.272500,-123.05940,,
708,2011,5915022,Lord Roberts Annex,Vancouver,157,0,2016/2017,2017,49.283144,-123.12973,,
709,2011,5915022,Lord Roberts Elementary,Vancouver,545,0,2016/2017,2017,49.286765,-123.13792,,
710,2011,5915022,Lord Selkirk Annex,Vancouver,78,0,2016/2017,2017,49.245315,-123.07279,,
711,2011,5915022,Lord Selkirk Elementary,Vancouver,715,0,2016/2017,2017,49.249680,-123.06877,,
712,2011,5915022,Lord Strathcona Community Elementary,Vancouver,530,0,2016/2017,2017,49.280199,-123.09164,,
713,2011,5915022,Lord Tennyson Elementary,Vancouver,444,0,2016/2017,2017,49.262345,-123.14936,,
714,2011,5915022,Madrona School,Vancouver,101,17,2016/2017,2017,49.263896,-123.16624,,
715,2011,5915022,Magee Secondary,Vancouver,0,1111,2016/2017,2017,49.229819,-123.15148,,
716,2011,5915020,Magnussen School,Vancouver,21,0,2016/2017,2017,49.261380,-123.24672,,
717,2011,5915022,Maple Grove Elementary,Vancouver,481,0,2016/2017,2017,49.229844,-123.15021,,
718,2011,5915022,Mount Pleasant Elementary,Vancouver,218,0,2016/2017,2017,49.264040,-123.09404,,
719,2011,5915022,Nootka Community Elementary,Vancouver,420,0,2016/2017,2017,49.253792,-123.04294,,
720,2011,5915022,Norma Rose Point Elementary Junior,Vancouver,663,87,2016/2017,2017,49.257173,-123.20093,,
721,2011,5915022,Notre Dame Regional Secondary,Vancouver,0,743,2016/2017,2017,49.275803,-123.04556,,
722,2011,5915022,Our Lady of Perpetual Help,Vancouver,427,0,2016/2017,2017,49.264135,-123.19617,,
723,2011,5915022,Our Lady of Sorrows,Vancouver,240,0,2016/2017,2017,49.279376,-123.04939,,
724,2011,5915015,Pacific Rim Montessori Academy,Vancouver,38,0,2016/2017,2017,49.131985,-123.19127,,
725,2011,5915015,Pacific Spirit School,Vancouver,40,0,2016/2017,2017,49.170191,-123.08314,,
726,2011,5915022,Pacific Torah Institute,Vancouver,0,25,2016/2017,2017,49.233422,-123.12761,,
808,2011,5915029,New Westminster Continuing Education,New Westminster,0,761,2016/2017,2017,49.200183,-122.91544,,
809,2011,5915029,Ecole Glenbrook Middle School,New Westminster,413,199,2016/2017,2017,49.220155,-122.91147,,
810,2011,5915029,Ecole Qayqayt Elementary,New Westminster,495,0,2016/2017,2017,49.207698,-122.90554,,
811,2011,5915029,F W Howay Elementary,New Westminster,136,0,2016/2017,2017,49.225258,-122.91001,,
812,2011,5915029,Herbert Spencer Elementary,New Westminster,497,0,2016/2017,2017,49.216872,-122.91450,,
813,2011,5915029,Home Learners Program,New Westminster,164,12,2016/2017,2017,49.232732,-122.89015,,
814,2011,5915062,Island Discovery Learning Community,New Westminster,245,34,2016/2017,2017,49.341542,-123.36563,,
815,2011,5915029,Lord Kelvin Elementary,New Westminster,366,0,2016/2017,2017,49.211306,-122.93016,,
816,2011,5915029,Lord Tweedsmuir Elementary,New Westminster,363,0,2016/2017,2017,49.205951,-122.94250,,
817,2011,5915029,New Westminster Secondary,New Westminster,0,1901,2016/2017,2017,49.214888,-122.92870,,
818,2011,5915029,POWER Alternate Secondary School,New Westminster,0,71,2016/2017,2017,49.200183,-122.91544,,
819,2011,5915029,Purpose Independent Secondary School,New Westminster,0,75,2016/2017,2017,49.202285,-122.91102,,
820,2011,5915029,Queen Elizabeth Elementary,New Westminster,410,0,2016/2017,2017,49.184328,-122.94319,,
821,2011,5915029,Queensborough Middle School,New Westminster,198,60,2016/2017,2017,49.185364,-122.94067,,
822,2011,5915029,Richard McBride Elementary,New Westminster,434,0,2016/2017,2017,49.226866,-122.89866,,
823,2011,5915029,Royal City Alternate Program,New Westminster,0,30,2016/2017,2017,49.204146,-122.91132,,
824,2011,5915029,Sigma,New Westminster,0,85,2016/2017,2017,49.214888,-122.92870,,
825,2011,5915029,Urban Academy,New Westminster,132,22,2016/2017,2017,49.207934,-122.90693,,
826,2011,5915029,Vancouver International College,New Westminster,0,49,2016/2017,2017,49.212903,-122.92073,,
827,2011,5915025,Alpha Alternate Secondary Program,Burnaby,0,5,2016/2017,2017,49.275538,-123.00032,,
828,2011,5915025,Alpha Secondary,Burnaby,0,1032,2016/2017,2017,49.275538,-123.00032,,
829,2011,5915025,Armstrong Elementary,Burnaby,389,0,2016/2017,2017,49.233919,-122.90744,,
830,2011,5915025,Aubrey Elementary,Burnaby,383,0,2016/2017,2017,49.274541,-122.97703,,
831,2011,5915025,BC Provincial School for the Deaf Elem,Burnaby,49,0,2016/2017,2017,49.216600,-123.00407,,
832,2011,5915025,BC Provincial School for the Deaf Sec,Burnaby,0,45,2016/2017,2017,49.214889,-122.98502,,
833,2011,5915025,Brantford Elementary,Burnaby,353,0,2016/2017,2017,49.224899,-122.96772,,
834,2011,5915025,Brentwood Park Elementary,Burnaby,478,0,2016/2017,2017,49.271421,-122.99221,,
835,2011,5915025,Buckingham Elementary,Burnaby,228,0,2016/2017,2017,49.232987,-122.95591,,
836,2011,5915025,Burnaby Central Secondary,Burnaby,0,1458,2016/2017,2017,49.240899,-122.97616,,
837,2011,5915025,Burnaby Continuing Education,Burnaby,0,261,2016/2017,2017,49.248461,-122.98707,,
838,2011,5915025,Burnaby Montessori School,Burnaby,10,0,2016/2017,2017,49.249093,-122.97476,,
839,2011,5915025,Burnaby Mountain Secondary,Burnaby,0,1454,2016/2017,2017,49.255978,-122.91005,,
840,2011,5915025,Burnaby North Secondary,Burnaby,0,1786,2016/2017,2017,49.278611,-122.97121,,
841,2011,5915025,Burnaby Online Program,Burnaby,17,1198,2016/2017,2017,49.232883,-122.91599,,
842,2011,5915025,Burnaby South Alternate Secondary Prg,Burnaby,0,20,2016/2017,2017,49.214889,-122.98502,,
843,2011,5915025,Burnaby South Secondary,Burnaby,0,1751,2016/2017,2017,49.214889,-122.98502,,
844,2011,5915025,Byrne Creek Community School,Burnaby,0,1027,2016/2017,2017,49.208875,-122.94953,,
845,2011,5915025,Cameron Elementary,Burnaby,402,0,2016/2017,2017,49.252280,-122.90066,,
846,2011,5915025,Royal Oak Secondary Program,Burnaby,0,18,2016/2017,2017,49.248461,-122.98707,,
847,2011,5915025,Capitol Hill Elementary,Burnaby,359,0,2016/2017,2017,49.280873,-122.98088,,
848,2011,5915025,Cariboo Hill Alternate Secondary Program,Burnaby,0,30,2016/2017,2017,49.232883,-122.91599,,
849,2011,5915025,Cariboo Hill Secondary,Burnaby,0,613,2016/2017,2017,49.232883,-122.91599,,
850,2011,5915025,Carver Christian High School,Burnaby,45,279,2016/2017,2017,49.236136,-122.90002,,
851,2011,5915025,Cascade Heights Elementary,Burnaby,437,0,2016/2017,2017,49.245732,-123.01984,,
852,2011,5915025,Chaffey-Burke Elementary,Burnaby,520,0,2016/2017,2017,49.234147,-123.00617,,
853,2011,5915025,Clinton Elementary,Burnaby,312,0,2016/2017,2017,49.212932,-122.97818,,
854,2011,5915025,Confederation Park Elementary,Burnaby,222,0,2016/2017,2017,49.282793,-122.99644,,
855,2011,5915025,Deer Lake SDA School,Burnaby,161,114,2016/2017,2017,49.241798,-122.98303,,
856,2011,5915025,Douglas Road Elementary,Burnaby,250,0,2016/2017,2017,49.248893,-122.98065,,
857,2011,5915025,Ecole Inman Elementary,Burnaby,390,0,2016/2017,2017,49.238795,-123.01656,,
858,2011,5915025,Ecole Seaforth Elementary,Burnaby,502,0,2016/2017,2017,49.250929,-122.93571,,
859,2011,5915025,Edmonds Community,Burnaby,288,0,2016/2017,2017,49.222271,-122.94032,,
860,2011,5915025,Forest Grove Elementary,Burnaby,305,0,2016/2017,2017,49.264235,-122.91629,,
861,2011,5915025,Fraser Park Secondary Program (Open),Burnaby,0,6,2016/2017,2017,49.185823,-122.98988,,
862,2011,5915025,Fraser Park Secondary Program (Secure),Burnaby,0,22,2016/2017,2017,49.185823,-122.98988,,
863,2011,5915025,Gilmore Community Elementary,Burnaby,364,0,2016/2017,2017,49.284225,-123.01408,,
864,2011,5915025,Gilpin Elementary,Burnaby,231,0,2016/2017,2017,49.243808,-122.98456,,
865,2011,5915025,Glenwood Elementary,Burnaby,94,0,2016/2017,2017,49.205948,-122.97977,,
866,2011,5915025,Holy Cross Elementary School,Burnaby,249,0,2016/2017,2017,49.271457,-122.99211,,
867,2011,5915025,John Knox Christian School,Burnaby,405,0,2016/2017,2017,49.226466,-122.92075,,
868,2011,5915025,Kitchener Elementary,Burnaby,294,0,2016/2017,2017,49.272513,-123.01431,,
869,2011,5915025,Lakeview Elementary,Burnaby,274,0,2016/2017,2017,49.229641,-122.94514,,
870,2011,5915025,Lochdale Community,Burnaby,301,0,2016/2017,2017,49.273354,-122.95919,,
871,2011,5915025,Lyndhurst Elementary,Burnaby,99,0,2016/2017,2017,49.258893,-122.89563,,
872,2011,5915025,Maples Secondary School,Burnaby,0,4,2016/2017,2017,49.253121,-123.00439,,
873,2011,5915025,Marlborough Elementary,Burnaby,933,0,2016/2017,2017,49.229781,-122.99146,,
874,2011,5915025,Maywood Community School,Burnaby,435,0,2016/2017,2017,49.222006,-123.00026,,
875,2011,5915034,Mediated Learning Academy,Burnaby,50,59,2016/2017,2017,49.268233,-122.89106,,
876,2011,5915025,Montecito Elementary,Burnaby,258,0,2016/2017,2017,49.264311,-122.95334,,
877,2011,5915025,Morley Elementary,Burnaby,345,0,2016/2017,2017,49.225962,-122.95744,,
878,2011,5915025,Moscrop Secondary,Burnaby,0,1431,2016/2017,2017,49.243029,-123.00446,,
879,2011,5915025,Nelson Elementary,Burnaby,348,0,2016/2017,2017,49.215732,-122.99486,,
880,2011,5915025,Our Lady of Mercy,Burnaby,234,0,2016/2017,2017,49.214283,-122.93640,,
881,2011,5915025,Parkcrest Elementary,Burnaby,181,0,2016/2017,2017,49.268010,-122.97629,,
882,2011,5915025,Prov Oral Program Deaf/Hard of Hearing,Burnaby,0,20,2016/2017,2017,49.214889,-122.98502,,
883,2011,5915025,Rosser Elementary,Burnaby,135,0,2016/2017,2017,49.282870,-123.00653,,
884,2011,5915025,Second Street Community,Burnaby,330,0,2016/2017,2017,49.227622,-122.92809,,
885,2011,5915025,South Slope Elementary,Burnaby,225,0,2016/2017,2017,49.216600,-123.00407,,
886,2011,5915025,Sperling Elementary,Burnaby,509,0,2016/2017,2017,49.263919,-122.96457,,
887,2011,5915025,St Francis de Sales,Burnaby,251,0,2016/2017,2017,49.220185,-122.96561,,
888,2011,5915025,St Helen's,Burnaby,361,0,2016/2017,2017,49.283791,-123.01867,,
889,2011,5915025,St Michaels,Burnaby,232,0,2016/2017,2017,49.235708,-122.89579,,
890,2011,5915025,St Thomas More Collegiate,Burnaby,0,675,2016/2017,2017,49.215483,-122.93861,,
891,2011,5915025,Stoney Creek Elementary,Burnaby,259,0,2016/2017,2017,49.258758,-122.90455,,
892,2011,5915025,Stride Avenue Community School,Burnaby,288,0,2016/2017,2017,49.211434,-122.95507,,
893,2011,5915025,Suncrest Elementary,Burnaby,283,0,2016/2017,2017,49.214852,-123.01844,,
894,2011,5915025,Taylor Park Elementary,Burnaby,586,0,2016/2017,2017,49.206941,-122.96046,,
895,2011,5915025,Twelfth Avenue Elementary,Burnaby,300,0,2016/2017,2017,49.217455,-122.93496,,
896,2011,5915025,University Highlands Elementary,Burnaby,245,0,2016/2017,2017,49.278249,-122.90882,,
897,2011,5915025,Westridge Elementary,Burnaby,280,0,2016/2017,2017,49.279545,-122.96239,,
898,2011,5915025,Whytecliff Agile Learning Centre-Burnaby,Burnaby,0,20,2016/2017,2017,49.253747,-123.02346,,
899,2011,5915025,Windsor Elementary,Burnaby,212,0,2016/2017,2017,49.222002,-122.97380,,
900,2011,5915075,Albion Elementary,Maple Ridge-Pitt Meadows,572,0,2016/2017,2017,49.184223,-122.55690,,
901,2011,5915075,Alexander Robinson Elementary,Maple Ridge-Pitt Meadows,565,0,2016/2017,2017,49.217429,-122.56133,,
902,2011,5915075,Alouette Elementary,Maple Ridge-Pitt Meadows,443,0,2016/2017,2017,49.229750,-122.60761,,
903,2011,5915075,Blue Mountain Elementary,Maple Ridge-Pitt Meadows,269,0,2016/2017,2017,49.228710,-122.53499,,
904,2011,5915075,Continuing Ed SD 42,Maple Ridge-Pitt Meadows,0,287,2016/2017,2017,49.214894,-122.65189,,
905,2011,5915070,Davie Jones Elementary,Maple Ridge-Pitt Meadows,366,0,2016/2017,2017,49.221176,-122.68372,,
906,2011,5915075,District 42 Alternative Secondary,Maple Ridge-Pitt Meadows,1,119,2016/2017,2017,49.236001,-122.57935,,
907,2011,5915070,Edith McDermott Elementary,Maple Ridge-Pitt Meadows,318,0,2016/2017,2017,49.223876,-122.68066,,
908,2011,5915075,Environmental School Project,Maple Ridge-Pitt Meadows,88,0,2016/2017,2017,49.221878,-122.60587,,
909,2011,5915075,Eric Langton Elementary,Maple Ridge-Pitt Meadows,422,0,2016/2017,2017,49.222976,-122.59768,,
910,2011,5915075,Fairview Elementary,Maple Ridge-Pitt Meadows,288,0,2016/2017,2017,49.224327,-122.65046,,
911,2011,5915075,Garibaldi Secondary,Maple Ridge-Pitt Meadows,0,748,2016/2017,2017,49.220303,-122.53499,,
912,2011,5915075,Glenwood Elementary,Maple Ridge-Pitt Meadows,328,0,2016/2017,2017,49.221991,-122.62824,,
913,2011,5915075,Golden Ears Elementary,Maple Ridge-Pitt Meadows,489,0,2016/2017,2017,49.216543,-122.58154,,
914,2011,5915075,Hammond Elementary,Maple Ridge-Pitt Meadows,421,0,2016/2017,2017,49.212315,-122.65848,,
915,2011,5915075,Harry Hooge Elementary,Maple Ridge-Pitt Meadows,430,0,2016/2017,2017,49.225296,-122.58475,,
916,2011,5915070,Highland Park Elementary,Maple Ridge-Pitt Meadows,305,0,2016/2017,2017,49.226148,-122.69623,,
917,2011,5915075,James Cameron School,Maple Ridge-Pitt Meadows,33,0,2016/2017,2017,49.221494,-122.65966,,
918,2011,5915075,Kanaka Creek Elementary,Maple Ridge-Pitt Meadows,617,0,2016/2017,2017,49.204026,-122.57293,,
919,2011,5915075,Laity View Elementary,Maple Ridge-Pitt Meadows,685,0,2016/2017,2017,49.226337,-122.63880,,
920,2011,5915075,Maple Ridge Christian School,Maple Ridge-Pitt Meadows,202,81,2016/2017,2017,49.223304,-122.65667,,
921,2011,5915075,Maple Ridge Elementary,Maple Ridge-Pitt Meadows,395,0,2016/2017,2017,49.212731,-122.64463,,
922,2011,5915075,Maple Ridge Secondary,Maple Ridge-Pitt Meadows,0,1317,2016/2017,2017,49.224230,-122.61402,,
923,2011,5915075,Meadow Montessori,Maple Ridge-Pitt Meadows,36,0,2016/2017,2017,49.209370,-122.64967,,
924,2011,5915075,Meadowridge School,Maple Ridge-Pitt Meadows,305,228,2016/2017,2017,49.224393,-122.55711,,
925,2011,5915075,Outreach Alternate Secondary,Maple Ridge-Pitt Meadows,0,131,2016/2017,2017,49.224230,-122.61402,,
926,2011,5915070,Pitt Meadows Elementary,Maple Ridge-Pitt Meadows,583,0,2016/2017,2017,49.219414,-122.68967,,
927,2011,5915070,Pitt Meadows Secondary,Maple Ridge-Pitt Meadows,0,866,2016/2017,2017,49.214360,-122.68273,,
928,2011,5915075,Samuel Robertson Technical Secondary,Maple Ridge-Pitt Meadows,0,785,2016/2017,2017,49.192059,-122.54252,,
929,2011,5915075,SD 42 Connected Learning Community,Maple Ridge-Pitt Meadows,19,297,2016/2017,2017,49.214894,-122.65189,,
930,2011,5915075,St Patrick's,Maple Ridge-Pitt Meadows,267,0,2016/2017,2017,49.222364,-122.59619,,
931,2011,5915075,Thomas Haney Centre,Maple Ridge-Pitt Meadows,0,1144,2016/2017,2017,49.212906,-122.58529,,
932,2011,5915075,Webster's Corners Elementary,Maple Ridge-Pitt Meadows,202,0,2016/2017,2017,49.220416,-122.51372,,
933,2011,5915075,Westview Secondary,Maple Ridge-Pitt Meadows,0,765,2016/2017,2017,49.223448,-122.64243,,
934,2011,5915075,Whonnock Elementary,Maple Ridge-Pitt Meadows,294,0,2016/2017,2017,49.205683,-122.46096,,
935,2011,5915075,Yennadon Elementary,Maple Ridge-Pitt Meadows,574,0,2016/2017,2017,49.234814,-122.57523,,
936,2011,5915034,Alderson Elementary,Coquitlam,193,0,2016/2017,2017,49.238748,-122.87594,,
937,2011,5915038,Anmore Elementary,Coquitlam,146,0,2016/2017,2017,49.311752,-122.85797,,
938,2011,5915039,Archbishop Carney Regional Secondary,Coquitlam,0,557,2016/2017,2017,49.258435,-122.75169,,
939,2011,5915043,Aspenwood Elementary,Coquitlam,514,0,2016/2017,2017,49.302263,-122.82962,,
940,2011,5915034,Baker Drive Elementary,Coquitlam,234,0,2016/2017,2017,49.268419,-122.82470,,
941,2011,5915034,Banting Middle School,Coquitlam,363,186,2016/2017,2017,49.264255,-122.87710,,
942,2011,5915039,Birchland Elementary,Coquitlam,180,0,2016/2017,2017,49.268955,-122.75120,,
943,2011,5915039,Blakeburn Elementary,Coquitlam,375,0,2016/2017,2017,49.263330,-122.74225,,
944,2011,5915034,Bramblewood Elementary,Coquitlam,310,0,2016/2017,2017,49.297513,-122.81225,,
945,2011,5915039,British Columbia Christian Academy,Coquitlam,186,136,2016/2017,2017,49.279907,-122.74358,,
946,2011,5915034,Cape Horn Elementary,Coquitlam,231,0,2016/2017,2017,49.234431,-122.83676,,
947,2011,5915039,Castle Park Elementary,Coquitlam,332,0,2016/2017,2017,49.233084,-122.78564,,
948,2011,5915039,Cedar Drive Elementary,Coquitlam,269,0,2016/2017,2017,49.270723,-122.73992,,
949,2011,5915034,Centennial School,Coquitlam,0,1323,2016/2017,2017,49.252446,-122.84659,,
950,2011,5915039,Central Elementary,Coquitlam,301,0,2016/2017,2017,49.256064,-122.78104,,
951,2011,5915034,Children of Integrity Montessori,Coquitlam,59,0,2016/2017,2017,49.273372,-122.82107,,
952,2011,5915039,Citadel Middle School,Coquitlam,280,110,2016/2017,2017,49.236894,-122.77646,,
953,2011,5915034,Como Lake Middle School,Coquitlam,191,99,2016/2017,2017,49.251481,-122.86173,,
954,2011,5915034,Continuing Ed SD 43,Coquitlam,0,449,2016/2017,2017,49.243158,-122.83912,,
955,2011,5915034,Coquitlam Alternate Basic Education,Coquitlam,0,169,2016/2017,2017,49.256183,-122.85471,,
956,2011,5915034,Coquitlam College - Brookmere Secondary,Coquitlam,0,129,2016/2017,2017,49.251118,-122.89139,,
957,2011,5915034,Coquitlam Open Learning 10-12,Coquitlam,0,834,2016/2017,2017,49.240531,-122.85407,,
958,2011,5915039,Coquitlam River Elementary,Coquitlam,250,0,2016/2017,2017,49.287836,-122.76715,,
959,2011,5915034,Dr Charles Best Secondary,Coquitlam,0,1406,2016/2017,2017,49.263229,-122.82037,,
960,2011,5915038,Eagle Mountain Middle School,Coquitlam,372,198,2016/2017,2017,49.302341,-122.83991,,
961,2011,5915034,Eagle Ridge Elementary,Coquitlam,393,0,2016/2017,2017,49.285355,-122.81774,,
962,2011,5915034,Ecole Porter Street Elementary,Coquitlam,379,0,2016/2017,2017,49.261691,-122.86328,,
963,2011,5915034,Encompass 10-12,Coquitlam,0,74,2016/2017,2017,49.251389,-122.84940,,
964,2011,5915034,Encompass K-9,Coquitlam,91,22,2016/2017,2017,49.251389,-122.84940,,
965,2011,5915034,Glen Elementary,Coquitlam,477,0,2016/2017,2017,49.282637,-122.79005,,
966,2011,5915043,Glenayre Elementary,Coquitlam,426,0,2016/2017,2017,49.274539,-122.88837,,
967,2011,5915034,Gleneagle Secondary,Coquitlam,0,1332,2016/2017,2017,49.283964,-122.80936,,
968,2011,5915034,Hampton Park Elementary,Coquitlam,330,0,2016/2017,2017,49.310567,-122.78743,,
969,2011,5915034,Harbour View Elementary,Coquitlam,280,0,2016/2017,2017,49.268376,-122.86026,,
970,2011,5915039,Hazel Trembath Elementary,Coquitlam,157,0,2016/2017,2017,49.237989,-122.78326,,
971,2011,5915043,Heritage Mountain Elementary,Coquitlam,373,0,2016/2017,2017,49.295106,-122.83320,,
972,2011,5915043,Heritage Woods Secondary,Coquitlam,0,1372,2016/2017,2017,49.298453,-122.84303,,
973,2011,5915034,Hillcrest Middle School,Coquitlam,360,200,2016/2017,2017,49.261638,-122.83537,,
974,2011,5915039,Hope Lutheran Christian School,Coquitlam,283,46,2016/2017,2017,49.270210,-122.76446,,
975,2011,5915034,Inquiry Hub,Coquitlam,0,62,2016/2017,2017,49.240531,-122.85407,,
976,2011,5915039,Irvine Elementary,Coquitlam,424,0,2016/2017,2017,49.281799,-122.76162,,
977,2011,5915039,James Park Elementary,Coquitlam,309,0,2016/2017,2017,49.265142,-122.76300,,
978,2011,5915039,Kilmer Elementary,Coquitlam,307,0,2016/2017,2017,49.243951,-122.77184,,
979,2011,5915039,Kwayhquitlum Middle School,Coquitlam,470,227,2016/2017,2017,49.272195,-122.77034,,
980,2011,5915034,Leigh Elementary,Coquitlam,496,0,2016/2017,2017,49.286651,-122.75033,,
981,2011,5915034,LINC-CLC,Coquitlam,0,48,2016/2017,2017,49.243158,-122.83912,,
982,2011,5915034,Lord Baden-Powell Elementary,Coquitlam,213,0,2016/2017,2017,49.248238,-122.87301,,
983,2011,5915034,Maillard Middle School,Coquitlam,247,136,2016/2017,2017,49.244984,-122.85519,,
984,2011,5915039,Maple Creek Middle School,Coquitlam,351,197,2016/2017,2017,49.278405,-122.78199,,
985,2011,5915039,Mary Hill Elementary,Coquitlam,321,0,2016/2017,2017,49.250756,-122.77569,,
986,2011,5915034,Meadowbrook Elementary,Coquitlam,175,0,2016/2017,2017,49.266897,-122.79915,,
987,2011,5915034,Miller Park Community School,Coquitlam,236,0,2016/2017,2017,49.265822,-122.87887,,
988,2011,5915039,Minnekhada Middle School,Coquitlam,285,149,2016/2017,2017,49.274775,-122.75152,,
989,2011,5915034,Montgomery Middle School,Coquitlam,197,115,2016/2017,2017,49.244677,-122.84137,,
990,2011,5915043,Moody Elementary,Coquitlam,188,0,2016/2017,2017,49.276639,-122.85207,,
991,2011,5915043,Moody Middle School,Coquitlam,179,100,2016/2017,2017,49.276559,-122.84014,,
992,2011,5915043,Mountain Meadows Elementary,Coquitlam,217,0,2016/2017,2017,49.290107,-122.82276,,
993,2011,5915034,Mountain View Elementary,Coquitlam,156,0,2016/2017,2017,49.260024,-122.87910,,
994,2011,5915034,Mundy Road Elementary,Coquitlam,196,0,2016/2017,2017,49.248987,-122.83427,,
995,2011,5915034,Nestor Elementary,Coquitlam,468,0,2016/2017,2017,49.289965,-122.77850,,
996,2011,5915034,Our Lady of Fatima,Coquitlam,375,0,2016/2017,2017,49.242383,-122.87767,,
997,2011,5915039,Our Lady of the Assumption,Coquitlam,243,0,2016/2017,2017,49.269320,-122.77648,,
998,2011,5915034,Panorama Heights Elementary,Coquitlam,493,0,2016/2017,2017,49.299846,-122.80032,,
999,2011,5915034,Parkland Elementary,Coquitlam,270,0,2016/2017,2017,49.261628,-122.84849,,
1000,2011,5915034,Pinetree Secondary,Coquitlam,0,1481,2016/2017,2017,49.290976,-122.79160,,
1001,2011,5915034,Pinetree Way Elementary,Coquitlam,311,0,2016/2017,2017,49.300166,-122.78535,,
1002,2011,5915039,Pitt River Middle School,Coquitlam,331,151,2016/2017,2017,49.254440,-122.77524,,
1003,2011,5915043,Pleasantside Elementary,Coquitlam,166,0,2016/2017,2017,49.294264,-122.85575,,
1004,2011,5915043,Port Moody Secondary,Coquitlam,0,1204,2016/2017,2017,49.275070,-122.86668,,
1005,2011,5915034,Queen of All Saints Elementary,Coquitlam,233,0,2016/2017,2017,49.263524,-122.85323,,
1006,2011,5915034,R C Macdonald Elementary,Coquitlam,136,0,2016/2017,2017,49.245367,-122.82315,,
1007,2011,5915034,Ranch Park Elementary,Coquitlam,228,0,2016/2017,2017,49.263993,-122.81234,,
1008,2011,5915039,Riverside Secondary,Coquitlam,0,1431,2016/2017,2017,49.256174,-122.78816,,
1009,2011,5915034,Riverview Park Elementary,Coquitlam,249,0,2016/2017,2017,49.257111,-122.80488,,
1010,2011,5915034,Rochester Elementary,Coquitlam,408,0,2016/2017,2017,49.246211,-122.85237,,
1011,2011,5915034,Roy Stibbs Elementary,Coquitlam,208,0,2016/2017,2017,49.253723,-122.88280,,
1012,2011,5915034,Scott Creek Middle School,Coquitlam,418,219,2016/2017,2017,49.286003,-122.81301,,
1013,2011,5915043,Seaview Community School,Coquitlam,209,0,2016/2017,2017,49.280175,-122.87536,,
1014,2011,5915034,Summit Middle School,Coquitlam,464,233,2016/2017,2017,49.296370,-122.80602,,
1015,2011,5915034,Suwa'lkh School,Coquitlam,5,49,2016/2017,2017,49.240531,-122.85407,,
1016,2011,5915039,Terry Fox Secondary,Coquitlam,0,1587,2016/2017,2017,49.263718,-122.74828,,
1017,2011,5915034,Traditional Learning Academy,Coquitlam,149,39,2016/2017,2017,49.245035,-122.85699,,
1018,2011,5915034,Tri-Cities Soar,Coquitlam,0,53,2016/2017,2017,49.243158,-122.83912,,
1019,2011,5915034,Walton Elementary,Coquitlam,568,0,2016/2017,2017,49.289912,-122.79681,,
1020,2011,5915039,Westwood Elementary,Coquitlam,196,0,2016/2017,2017,49.276849,-122.78210,,
1021,2011,5915046,Argyle Secondary,North Vancouver,0,1240,2016/2017,2017,49.341659,-123.04254,,
1022,2011,5915046,Blueridge Elementary,North Vancouver,347,0,2016/2017,2017,49.323938,-123.00036,,
1023,2011,5915051,Bodwell High School,North Vancouver,0,573,2016/2017,2017,49.314584,-123.10023,,
1024,2011,5915046,Boundary Elementary,North Vancouver,336,0,2016/2017,2017,49.334154,-123.05235,,
1025,2011,5915046,Braemar Elementary,North Vancouver,488,0,2016/2017,2017,49.343119,-123.08007,,
1026,2011,5915046,Brockton Preparatory School,North Vancouver,154,57,2016/2017,2017,49.340483,-123.02423,,
1027,2011,5915046,Brooksbank Elementary,North Vancouver,387,0,2016/2017,2017,49.319630,-123.04603,,
1028,2011,5915046,Canyon Heights Elementary,North Vancouver,383,0,2016/2017,2017,49.352782,-123.09641,,
1029,2011,5915046,Capilano Elementary,North Vancouver,452,0,2016/2017,2017,49.327707,-123.10844,,
1030,2011,5915046,Carisbrooke Elementary,North Vancouver,345,0,2016/2017,2017,49.342054,-123.06288,,
1031,2011,5915051,Carson Graham Secondary,North Vancouver,0,1315,2016/2017,2017,49.328828,-123.08154,,
1032,2011,5915046,Cleveland Elementary,North Vancouver,477,0,2016/2017,2017,49.347135,-123.10979,,
1033,2011,5915046,Continuing Ed SD 44,North Vancouver,0,13,2016/2017,2017,49.340516,-123.08142,,
1034,2011,5915046,Cousteau L'Ecole Francaise Interna'le,North Vancouver,120,7,2016/2017,2017,49.342681,-123.04503,,
1035,2011,5915046,Cove Cliff Elementary,North Vancouver,335,0,2016/2017,2017,49.322864,-122.94812,,
1036,2011,5915046,Dorothy Lynas Elementary,North Vancouver,543,0,2016/2017,2017,49.320525,-122.96073,,
1037,2011,5915046,Eastview Elementary,North Vancouver,251,0,2016/2017,2017,49.324932,-123.03987,,
1038,2011,5915046,Handsworth Secondary,North Vancouver,0,1457,2016/2017,2017,49.351778,-123.10093,,
1039,2011,5915046,Highlands Elementary,North Vancouver,433,0,2016/2017,2017,49.337961,-123.09791,,
1040,2011,5915051,Holy Trinity School,North Vancouver,227,0,2016/2017,2017,49.334160,-123.07295,,
1041,2011,5915046,Kenneth Gordon,North Vancouver,119,59,2016/2017,2017,49.309237,-123.01613,,
1042,2011,5915051,Larson Elementary,North Vancouver,460,0,2016/2017,2017,49.333335,-123.08456,,
1043,2011,5915046,Lions Gate Christian Academy,North Vancouver,210,109,2016/2017,2017,49.313708,-122.99399,,
727,2011,5915022,Pacific Torah Institute International,Vancouver,0,12,2016/2017,2017,49.233422,-123.12761,,
728,2011,5915022,PALS Autism School,Vancouver,6,13,2016/2017,2017,49.280270,-123.05632,,
729,2011,5915022,Pattison High School,Vancouver,0,111,2016/2017,2017,49.280835,-123.12539,,
730,2011,5915022,Pattison School,Vancouver,0,37,2016/2017,2017,49.280835,-123.12539,,
731,2011,5915022,Pierre Elliott Trudeau Elementary,Vancouver,266,0,2016/2017,2017,49.214574,-123.09609,,
732,2011,5915022,Point Grey Secondary,Vancouver,0,1025,2016/2017,2017,49.237289,-123.15343,,
733,2011,5915022,Prince of Wales Secondary,Vancouver,0,1076,2016/2017,2017,49.245472,-123.15728,,
734,2011,5915022,Queen Alexandra Elementary,Vancouver,189,0,2016/2017,2017,49.262334,-123.07748,,
735,2011,5915022,Queen Elizabeth Annex,Vancouver,80,0,2016/2017,2017,49.248981,-123.19510,,
736,2011,5915022,Queen Elizabeth Elementary,Vancouver,379,0,2016/2017,2017,49.257173,-123.20093,,
737,2011,5915022,Queen Mary Elementary,Vancouver,349,0,2016/2017,2017,49.267825,-123.20498,,
738,2011,5915022,Queen Victoria Annex,Vancouver,139,0,2016/2017,2017,49.267181,-123.06650,,
739,2011,5915022,Quilchena Elementary,Vancouver,305,0,2016/2017,2017,49.237313,-123.15194,,
740,2011,5915022,Renfrew Community Elementary,Vancouver,430,0,2016/2017,2017,49.250749,-123.03195,,
741,2011,5915022,Royal Canadian College,Vancouver,0,124,2016/2017,2017,49.207242,-123.11860,,
742,2011,5915022,SD 39 DL Elementary,Vancouver,52,0,2016/2017,2017,49.251966,-123.05268,,
743,2011,5915022,SelfDesign Learning Community (DL),Vancouver,1273,882,2016/2017,2017,49.268702,-123.19943,,
744,2011,5915022,Shaughnessy Elementary,Vancouver,419,0,2016/2017,2017,49.248447,-123.14379,,
745,2011,5915022,Simon Fraser Elementary,Vancouver,309,0,2016/2017,2017,49.257173,-123.10838,,
746,2011,5915022,Sir Alexander Mackenzie Elementary,Vancouver,385,0,2016/2017,2017,49.234683,-123.08630,,
747,2011,5915022,Sir Charles Kingsford-Smith,Vancouver,311,0,2016/2017,2017,49.221365,-123.05571,,
748,2011,5915022,Sir Charles Tupper Secondary,Vancouver,0,997,2016/2017,2017,49.249620,-123.09386,,
749,2011,5915022,Sir Guy Carleton Community Elementary,Vancouver,129,0,2016/2017,2017,49.234075,-123.03764,,
750,2011,5915022,Sir James Douglas Annex,Vancouver,191,0,2016/2017,2017,49.215012,-123.07304,,
751,2011,5915022,Sir James Douglas Elementary,Vancouver,483,0,2016/2017,2017,49.216049,-123.06465,,
752,2011,5915022,Sir John Franklin Community,Vancouver,195,0,2016/2017,2017,49.282544,-123.02826,,
753,2011,5915022,Sir Matthew Begbie Elementary,Vancouver,334,0,2016/2017,2017,49.271812,-123.03765,,
754,2011,5915022,Sir Richard McBride Annex,Vancouver,80,0,2016/2017,2017,49.241841,-123.08502,,
755,2011,5915022,Sir Richard McBride Elementary,Vancouver,344,0,2016/2017,2017,49.243521,-123.07819,,
756,2011,5915022,Sir Sandford Fleming Elementary,Vancouver,491,0,2016/2017,2017,49.226479,-123.07654,,
757,2011,5915022,Sir Wilfred Grenfell Community,Vancouver,433,0,2016/2017,2017,49.243123,-123.03449,,
758,2011,5915022,Sir Wilfrid Laurier Elementary,Vancouver,319,0,2016/2017,2017,49.218208,-123.12499,,
759,2011,5915022,Sir William Macdonald Community,Vancouver,85,0,2016/2017,2017,49.280624,-123.06432,,
760,2011,5915022,Sir William Osler Elementary,Vancouver,211,0,2016/2017,2017,49.231012,-123.13262,,
761,2011,5915022,Sir Winston Churchill Secondary,Vancouver,0,2021,2016/2017,2017,49.220418,-123.12564,,
762,2011,5915022,Sir Wm Van Horne Elementary,Vancouver,396,0,2016/2017,2017,49.231795,-123.10694,,
763,2011,5915022,Southlands Elementary,Vancouver,235,0,2016/2017,2017,49.237545,-123.19780,,
764,2011,5915022,St Andrew's,Vancouver,206,0,2016/2017,2017,49.227214,-123.09585,,
765,2011,5915022,St Anthony of Padua,Vancouver,203,0,2016/2017,2017,49.204465,-123.13700,,
766,2011,5915022,St Augustine's,Vancouver,268,0,2016/2017,2017,49.264805,-123.15392,,
767,2011,5915022,St Francis of Assisi,Vancouver,222,0,2016/2017,2017,49.276870,-123.06538,,
768,2011,5915022,St Francis Xavier,Vancouver,444,0,2016/2017,2017,49.266462,-123.09452,,
769,2011,5915022,St George's School,Vancouver,380,769,2016/2017,2017,49.246947,-123.20014,,
770,2011,5915022,St John's International,Vancouver,0,224,2016/2017,2017,49.264041,-123.14789,,
771,2011,5915022,St John's School,Vancouver,317,225,2016/2017,2017,49.262931,-123.15555,,
772,2011,5915022,St Joseph's,Vancouver,185,0,2016/2017,2017,49.255914,-123.07164,,
773,2011,5915022,St Jude's,Vancouver,228,0,2016/2017,2017,49.256546,-123.04262,,
774,2011,5915022,St Mary's,Vancouver,284,0,2016/2017,2017,49.237502,-123.03370,,
775,2011,5915022,St Patrick Regional Secondary,Vancouver,0,493,2016/2017,2017,49.261405,-123.10260,,
776,2011,5915022,St Patrick's Elementary,Vancouver,223,0,2016/2017,2017,49.259772,-123.10306,,
777,2011,5915022,Stratford Hall,Vancouver,318,195,2016/2017,2017,49.257469,-123.06946,,
778,2011,5915022,Tecumseh Annex,Vancouver,86,0,2016/2017,2017,49.237218,-123.07359,,
779,2011,5915022,Tecumseh Elementary,Vancouver,449,0,2016/2017,2017,49.231507,-123.06778,,
780,2011,5915022,Templeton Secondary,Vancouver,0,772,2016/2017,2017,49.277918,-123.06257,,
781,2011,5915022,The Westside School,Vancouver,135,79,2016/2017,2017,49.277571,-123.11344,,
782,2011,5915022,Thunderbird Elementary,Vancouver,211,0,2016/2017,2017,49.263524,-123.03107,,
783,2011,5915022,Tillicum Community Annex,Vancouver,86,0,2016/2017,2017,49.286250,-123.05542,,
784,2011,5915022,Trafalgar Elementary,Vancouver,483,0,2016/2017,2017,49.249385,-123.16525,,
785,2011,5915022,Tyee Elementary,Vancouver,198,0,2016/2017,2017,49.253413,-123.07401,,
786,2011,5915020,University Hill Elementary,Vancouver,359,0,2016/2017,2017,49.273067,-123.23744,,
787,2011,5915020,University Hill Secondary,Vancouver,0,719,2016/2017,2017,49.253926,-123.24076,,
788,2011,5915020,University Transition Program,Vancouver,0,42,2016/2017,2017,49.261726,-123.23439,,
789,2011,5915022,Vancouver Alternate,Vancouver,0,197,2016/2017,2017,49.263300,-123.14026,,
790,2011,5915022,Vancouver Christian,Vancouver,376,0,2016/2017,2017,49.254712,-123.02856,,
791,2011,5915022,Vancouver College,Vancouver,265,806,2016/2017,2017,49.234960,-123.13617,,
792,2011,5915022,Vancouver Formosa Academy,Vancouver,1,32,2016/2017,2017,49.233748,-123.04636,,
793,2011,5915022,Vancouver Hebrew Academy,Vancouver,84,0,2016/2017,2017,49.215472,-123.14136,,
794,2011,5915022,Vancouver Learning Network,Vancouver,0,2225,2016/2017,2017,49.231979,-123.09268,,
795,2011,5915022,Vancouver Talmud Torah Elementary,Vancouver,411,0,2016/2017,2017,49.247580,-123.12682,,
796,2011,5915022,Vancouver Technical Secondary,Vancouver,0,1606,2016/2017,2017,49.260103,-123.05128,,
797,2011,5915022,VSB Adult Education,Vancouver,0,861,2016/2017,2017,49.263300,-123.14026,,
798,2011,5915022,Walter Moberly Elementary,Vancouver,483,0,2016/2017,2017,49.215641,-123.08430,,
799,2011,5915022,Waverley Elementary,Vancouver,398,0,2016/2017,2017,49.227705,-123.05549,,
800,2011,5915022,West Coast Christian School,Vancouver,103,78,2016/2017,2017,49.284985,-123.04453,,
801,2011,5915022,West Point Grey Academy,Vancouver,529,385,2016/2017,2017,49.267066,-123.20150,,
802,2011,5915022,Westside Montessori Academy,Vancouver,63,0,2016/2017,2017,49.256770,-123.04959,,
803,2011,5915022,Windermere Community Secondary,Vancouver,0,1080,2016/2017,2017,49.247473,-123.03784,,
804,2011,5915022,York House School,Vancouver,320,320,2016/2017,2017,49.248848,-123.14034,,
805,2011,5915029,Access New West Online Virtual School,New Westminster,0,241,2016/2017,2017,49.200183,-122.91544,,
806,2011,5915029,Al-Hidayah School,New Westminster,50,0,2016/2017,2017,49.202881,-122.90730,,
807,2011,5915029,Connaught Heights Elementary,New Westminster,176,0,2016/2017,2017,49.202733,-122.95455,,
395,2011,5915004,Boundary Park Elementary,Surrey,268,0,2016/2017,2017,49.117287,-122.88110,,
396,2011,5915004,Bridgeview Elementary,Surrey,154,0,2016/2017,2017,49.211796,-122.86589,,
397,2011,5915004,Brookside Elementary,Surrey,351,0,2016/2017,2017,49.158178,-122.82755,,
398,2011,5915004,Cambridge Elementary,Surrey,690,0,2016/2017,2017,49.113763,-122.80684,,
399,2011,5915004,Cedar Hills Elementary,Surrey,374,0,2016/2017,2017,49.180493,-122.87970,,
400,2011,5915004,Chantrell Creek Elementary,Surrey,349,0,2016/2017,2017,49.048739,-122.84252,,
401,2011,5915004,Chimney Hill Elementary,Surrey,686,0,2016/2017,2017,49.137370,-122.81351,,
402,2011,5915004,Cindrich Elementary,Surrey,482,0,2016/2017,2017,49.166523,-122.84995,,
403,2011,5915004,City Central Learning Centre,Surrey,0,191,2016/2017,2017,49.200733,-122.85893,,
404,2011,5915004,Clayton Elementary,Surrey,223,0,2016/2017,2017,49.139561,-122.71270,,
405,2011,5915004,Clayton Heights Secondary,Surrey,0,1359,2016/2017,2017,49.129216,-122.70191,,
406,2011,5915004,Cloverdale Catholic School,Surrey,301,0,2016/2017,2017,49.109749,-122.73740,,
407,2011,5915004,Cloverdale Christian School,Surrey,174,0,2016/2017,2017,49.110539,-122.72668,,
408,2011,5915004,Cloverdale Learning Centre,Surrey,0,151,2016/2017,2017,49.106659,-122.73519,,
409,2011,5915004,Cloverdale Traditional,Surrey,285,0,2016/2017,2017,49.104247,-122.72785,,
410,2011,5915004,Coast Meridian Elementary,Surrey,308,0,2016/2017,2017,49.152420,-122.75498,,
411,2011,5915004,Colebrook Elementary,Surrey,239,0,2016/2017,2017,49.101383,-122.87429,,
412,2011,5915004,Continuing Ed SD 36,Surrey,0,911,2016/2017,2017,49.170129,-122.83376,,
413,2011,5915004,Cornerstone Montessori School,Surrey,116,0,2016/2017,2017,49.155354,-122.81440,,
414,2011,5915004,Cougar Creek Elementary,Surrey,373,0,2016/2017,2017,49.130832,-122.88356,,
415,2011,5915004,Coyote Creek Elementary,Surrey,644,0,2016/2017,2017,49.150338,-122.79034,,
416,2011,5915004,Creekside Elementary,Surrey,356,0,2016/2017,2017,49.168019,-122.83970,,
417,2011,5915004,Crescent Park Elementary,Surrey,367,0,2016/2017,2017,49.046764,-122.86713,,
418,2011,5915004,David Brankin Elementary,Surrey,460,0,2016/2017,2017,49.169553,-122.86771,,
419,2011,5915004,Diamond Elementary School,Surrey,170,0,2016/2017,2017,49.104036,-122.70658,,
420,2011,5915004,Dogwood Elementary,Surrey,364,0,2016/2017,2017,49.198070,-122.78674,,
421,2011,5915004,Don Christian Elementary,Surrey,348,0,2016/2017,2017,49.116515,-122.71231,,
422,2011,5915004,Dr F D Sinclair Elementary,Surrey,515,0,2016/2017,2017,49.138782,-122.86761,,
423,2011,5915004,Earl Marriott Secondary,Surrey,0,1846,2016/2017,2017,49.031144,-122.78595,,
424,2011,5915004,East Kensington Elementary,Surrey,35,0,2016/2017,2017,49.052746,-122.71377,,
425,2011,5915007,Eaton Arrowsmith School White Rock,Surrey,9,4,2016/2017,2017,49.029972,-122.80386,,
426,2011,5915004,Ecole Riverdale Elementary,Surrey,463,0,2016/2017,2017,49.200043,-122.81141,,
427,2011,5915004,Education Services,Surrey,0,174,2016/2017,2017,49.170129,-122.83376,,
428,2011,5915004,Elgin Park Secondary,Surrey,0,1203,2016/2017,2017,49.045553,-122.84858,,
429,2011,5915004,Ellendale Elementary,Surrey,136,0,2016/2017,2017,49.203331,-122.81919,,
430,2011,5915004,Enver Creek Secondary,Surrey,0,1347,2016/2017,2017,49.155828,-122.82025,,
431,2011,5915004,Erma Stephenson Elementary,Surrey,461,0,2016/2017,2017,49.200945,-122.77892,,
432,2011,5915004,Fleetwood Park Secondary,Surrey,0,1466,2016/2017,2017,49.147187,-122.78983,,
433,2011,5915004,Forsyth Road Elementary,Surrey,288,0,2016/2017,2017,49.197629,-122.83670,,
434,2011,5915004,Frank Hurt Secondary,Surrey,0,1214,2016/2017,2017,49.142559,-122.83591,,
435,2011,5915004,Fraser Heights Secondary,Surrey,0,1405,2016/2017,2017,49.198599,-122.77693,,
436,2011,5915004,Fraser Wood Elementary,Surrey,525,0,2016/2017,2017,49.196138,-122.76723,,
437,2011,5915004,Frost Road Elementary,Surrey,614,0,2016/2017,2017,49.159286,-122.77304,,
438,2011,5915004,G.A.D. Elementary School,Surrey,521,0,2016/2017,2017,49.142876,-122.84898,,
439,2011,5915004,George Greenaway Elementary,Surrey,455,0,2016/2017,2017,49.113978,-122.74260,,
440,2011,5915004,Georges Vanier Elementary,Surrey,521,0,2016/2017,2017,49.129775,-122.82891,,
441,2011,5915004,Goldstone Park Elementary,Surrey,593,0,2016/2017,2017,49.116762,-122.81779,,
442,2011,5915004,Green Timbers Elementary,Surrey,528,0,2016/2017,2017,49.163588,-122.82317,,
443,2011,5915004,Guildford Learning Centre,Surrey,0,150,2016/2017,2017,49.188229,-122.79971,,
444,2011,5915004,Guildford Park Secondary,Surrey,0,1260,2016/2017,2017,49.196947,-122.81782,,
445,2011,5915004,H T Thrift Elementary,Surrey,259,0,2016/2017,2017,49.033679,-122.81246,,
446,2011,5915004,Halls Prairie Elementary,Surrey,139,0,2016/2017,2017,49.017250,-122.72285,,
447,2011,5915004,Harold Bishop Elementary,Surrey,435,0,2016/2017,2017,49.191401,-122.78770,,
448,2011,5915004,Hazelgrove Elementary,Surrey,664,0,2016/2017,2017,49.130690,-122.69322,,
449,2011,5915004,Henry Bose Elementary,Surrey,355,0,2016/2017,2017,49.121702,-122.85079,,
450,2011,5915004,Hillcrest Elementary,Surrey,595,0,2016/2017,2017,49.121068,-122.70749,,
451,2011,5915004,Hjorth Road Elementary,Surrey,245,0,2016/2017,2017,49.191566,-122.81292,,
452,2011,5915004,Holly Elementary,Surrey,575,0,2016/2017,2017,49.197094,-122.80651,,
453,2011,5915004,Holy Cross Regional High School,Surrey,0,816,2016/2017,2017,49.162951,-122.77380,,
454,2011,5915004,Hyland Elementary,Surrey,409,0,2016/2017,2017,49.124037,-122.83538,,
455,2011,5915004,iLearn DL Secondary School,Surrey,0,218,2016/2017,2017,49.115872,-122.84563,,
456,2011,5915004,Iqra School,Surrey,434,0,2016/2017,2017,49.214138,-122.81797,,
457,2011,5915004,J T Brown Elementary,Surrey,268,0,2016/2017,2017,49.111645,-122.87571,,
458,2011,5915004,James Ardiel Elementary,Surrey,415,0,2016/2017,2017,49.206613,-122.84111,,
459,2011,5915004,Janice Churchill Elementary,Surrey,281,0,2016/2017,2017,49.152599,-122.81740,,
460,2011,5915004,Jessie Lee Elementary,Surrey,323,0,2016/2017,2017,49.039711,-122.79546,,
461,2011,5915004,Johnston Heights Secondary,Surrey,0,1394,2016/2017,2017,49.182389,-122.79671,,
462,2011,5915004,K B Woodward Elementary,Surrey,537,0,2016/2017,2017,49.195191,-122.85883,,
463,2011,5915004,Katzie Elementary,Surrey,804,0,2016/2017,2017,49.128476,-122.68402,,
464,2011,5915004,Kennedy Trail Elementary,Surrey,300,0,2016/2017,2017,49.153963,-122.88293,,
465,2011,5915004,Khalsa School (Surrey),Surrey,2218,280,2016/2017,2017,49.129605,-122.87927,,
466,2011,5915004,Kirkbride Elementary,Surrey,396,0,2016/2017,2017,49.170196,-122.88569,,
467,2011,5915004,Kwantlen Park Secondary,Surrey,0,1518,2016/2017,2017,49.192533,-122.85648,,
468,2011,5915004,L A Matheson Secondary,Surrey,0,1118,2016/2017,2017,49.175184,-122.88457,,
469,2011,5915004,Laronde Elementary,Surrey,448,0,2016/2017,2017,49.036041,-122.85882,,
470,2011,5915004,Latimer Road Elementary,Surrey,406,0,2016/2017,2017,49.111466,-122.69019,,
471,2011,5915004,Lena Shaw Elementary,Surrey,510,0,2016/2017,2017,49.185012,-122.82713,,
472,2011,5915004,Lord Tweedsmuir Secondary,Surrey,0,2056,2016/2017,2017,49.114455,-122.72404,,
473,2011,5915004,M B Sanford Elementary,Surrey,529,0,2016/2017,2017,49.135739,-122.82587,,
474,2011,5915004,Maple Green Elementary,Surrey,416,0,2016/2017,2017,49.157326,-122.80973,,
475,2011,5915004,Martha Currie Elementary,Surrey,590,0,2016/2017,2017,49.107815,-122.71294,,
476,2011,5915004,Martha Jane Norris Elementary,Surrey,434,0,2016/2017,2017,49.123724,-122.86426,,
477,2011,5915004,Mary Jane Shannon Elementary,Surrey,374,0,2016/2017,2017,49.196552,-122.82277,,
478,2011,5915004,McLeod Road Traditional,Surrey,211,0,2016/2017,2017,49.117758,-122.82887,,
479,2011,5915004,Morgan Elementary,Surrey,428,0,2016/2017,2017,49.063198,-122.78849,,
480,2011,5915004,Mountainview Montessori,Surrey,335,0,2016/2017,2017,49.180766,-122.79945,,
481,2011,5915004,Newton Elementary,Surrey,426,0,2016/2017,2017,49.150225,-122.85277,,
482,2011,5915004,North Ridge Elementary,Surrey,391,0,2016/2017,2017,49.115248,-122.84901,,
483,2011,5915004,North Surrey Learning Centre,Surrey,0,177,2016/2017,2017,49.142876,-122.84898,,
484,2011,5915004,North Surrey Secondary,Surrey,0,1347,2016/2017,2017,49.177066,-122.78034,,
485,2011,5915004,Ocean Cliff Elementary,Surrey,348,0,2016/2017,2017,49.038429,-122.87483,,
486,2011,5915004,Old Yale Road Elementary,Surrey,450,0,2016/2017,2017,49.186902,-122.85678,,
487,2011,5915004,Our Lady of Good Counsel,Surrey,245,0,2016/2017,2017,49.193497,-122.83606,,
488,2011,5915004,Pacific Academy,Surrey,818,586,2016/2017,2017,49.189192,-122.75642,,
489,2011,5915004,Pacific Heights Elementary,Surrey,347,0,2016/2017,2017,49.049300,-122.74753,,
490,2011,5915004,Panorama Park Elementary,Surrey,400,0,2016/2017,2017,49.115295,-122.86599,,
491,2011,5915004,Panorama Ridge Secondary,Surrey,0,1603,2016/2017,2017,49.118791,-122.85498,,
492,2011,5915007,Peace Arch Elementary,Surrey,544,0,2016/2017,2017,49.025647,-122.78254,,
493,2011,5915004,Port Kells Elementary,Surrey,108,0,2016/2017,2017,49.162665,-122.69399,,
494,2011,5915004,Prince Charles Elementary,Surrey,343,0,2016/2017,2017,49.184692,-122.87759,,
495,2011,5915004,Princess Margaret Secondary,Surrey,0,1307,2016/2017,2017,49.133580,-122.86538,,
496,2011,5915004,Queen Elizabeth Secondary,Surrey,0,1237,2016/2017,2017,49.174050,-122.84619,,
497,2011,5915004,Ray Shepherd Elementary,Surrey,310,0,2016/2017,2017,49.032201,-122.84517,,
498,2011,5915004,Regent Christian Academy,Surrey,339,265,2016/2017,2017,49.123356,-122.80362,,
499,2011,5915004,Relevant High,Surrey,0,108,2016/2017,2017,49.104036,-122.70658,,
500,2011,5915004,Rosemary Heights Elementary,Surrey,547,0,2016/2017,2017,49.067178,-122.79266,,
501,2011,5915004,Royal Heights Elementary,Surrey,172,0,2016/2017,2017,49.179192,-122.89939,,
502,2011,5915004,Semiahmoo Secondary,Surrey,0,1623,2016/2017,2017,49.034600,-122.81247,,
503,2011,5915004,Semiahmoo Trail Elementary,Surrey,328,0,2016/2017,2017,49.057688,-122.81940,,
504,2011,5915004,Senator Reid Elementary,Surrey,384,0,2016/2017,2017,49.172652,-122.87389,,
505,2011,5915004,Serpentine Heights Elementary,Surrey,359,0,2016/2017,2017,49.173163,-122.77544,,
506,2011,5915004,Sikh Academy,Surrey,672,0,2016/2017,2017,49.157669,-122.86527,,
507,2011,5915004,Simon Cunningham Elementary,Surrey,589,0,2016/2017,2017,49.173125,-122.83434,,
508,2011,5915004,South Meridian Elementary,Surrey,325,0,2016/2017,2017,49.026025,-122.77264,,
509,2011,5915004,South Surrey White Rock Learning Centre,Surrey,0,156,2016/2017,2017,49.044491,-122.79161,,
510,2011,5915004,Southridge School,Surrey,320,361,2016/2017,2017,49.050067,-122.77860,,
511,2011,5915004,St Bernadette,Surrey,189,0,2016/2017,2017,49.122046,-122.85844,,
512,2011,5915004,St Matthew's Elementary,Surrey,238,0,2016/2017,2017,49.162782,-122.77708,,
513,2011,5915004,Star of the Sea,Surrey,450,0,2016/2017,2017,49.045457,-122.80597,,
514,2011,5915004,Strawberry Hill Elementary,Surrey,481,0,2016/2017,2017,49.141660,-122.87951,,
515,2011,5915004,Sullivan Elementary,Surrey,283,0,2016/2017,2017,49.111935,-122.79999,,
516,2011,5915004,Sullivan Heights Secondary,Surrey,0,1517,2016/2017,2017,49.115953,-122.82302,,
517,2011,5915004,Sunnyside Elementary,Surrey,578,0,2016/2017,2017,49.053387,-122.78194,,
518,2011,5915004,Sunrise Ridge Elementary,Surrey,305,0,2016/2017,2017,49.111168,-122.70438,,
519,2011,5915004,Surrey Centre Elementary,Surrey,455,0,2016/2017,2017,49.109676,-122.75914,,
520,2011,5915004,Surrey Christian,Surrey,542,440,2016/2017,2017,49.165101,-122.77316,,
521,2011,5915004,Surrey Academy of Innovative Learning,Surrey,69,1087,2016/2017,2017,49.158178,-122.82755,,
522,2011,5915004,Surrey Muslim School,Surrey,248,0,2016/2017,2017,49.138288,-122.84878,,
523,2011,5915004,Surrey Traditional,Surrey,337,0,2016/2017,2017,49.207827,-122.83826,,
524,2011,5915004,T E Scott Elementary,Surrey,557,0,2016/2017,2017,49.131509,-122.81245,,
525,2011,5915004,Tamanawis Secondary,Surrey,0,1446,2016/2017,2017,49.122715,-122.87242,,
526,2011,5915004,Traditional Learning Academy Online,Surrey,556,743,2016/2017,2017,49.122191,-122.73272,,
527,2011,5915004,W E Kinvig Elementary,Surrey,361,0,2016/2017,2017,49.131007,-122.85467,,
528,2011,5915004,Walnut Road Elementary,Surrey,663,0,2016/2017,2017,49.151698,-122.77361,,
529,2011,5915004,Westerman Elementary,Surrey,416,0,2016/2017,2017,49.141658,-122.88437,,
530,2011,5915004,White Rock Christian Academy,Surrey,281,143,2016/2017,2017,49.043395,-122.80146,,
531,2011,5915007,White Rock Elementary,Surrey,476,0,2016/2017,2017,49.025235,-122.79847,,
532,2011,5915004,William F. Davidson Elementary,Surrey,428,0,2016/2017,2017,49.183214,-122.79133,,
533,2011,5915004,William of Orange Christian,Surrey,84,0,2016/2017,2017,49.112304,-122.73897,,
534,2011,5915004,William Watson Elementary,Surrey,356,0,2016/2017,2017,49.147821,-122.76624,,
535,2011,5915004,Woodland Park Elementary,Surrey,454,0,2016/2017,2017,49.167148,-122.78474,,
536,2011,5915004,Woodward Hill Elementary,Surrey,678,0,2016/2017,2017,49.112902,-122.82876,,
537,2011,5915011,Annieville Elementary,Delta,277,0,2016/2017,2017,49.170777,-122.91118,,
538,2011,5915011,Beach Grove Elementary,Delta,308,0,2016/2017,2017,49.034719,-123.05908,,
539,2011,5915011,Boundary Bay Montessori House,Delta,40,0,2016/2017,2017,49.071061,-123.02414,,
540,2011,5915011,Brooke Elementary,Delta,309,0,2016/2017,2017,49.161705,-122.92476,,
541,2011,5915011,Burnsview Secondary,Delta,0,805,2016/2017,2017,49.141843,-122.91255,,
542,2011,5915011,Chalmers Elementary,Delta,461,0,2016/2017,2017,49.139394,-122.90849,,
543,2011,5915011,Cliff Drive Elementary,Delta,306,0,2016/2017,2017,49.024732,-123.08476,,
544,2011,5915011,Cougar Canyon Elementary,Delta,523,0,2016/2017,2017,49.126688,-122.90027,,
545,2011,5915011,Delta Access,Delta,0,187,2016/2017,2017,49.127632,-122.90265,,
546,2011,5915011,Delta Christian School,Delta,102,0,2016/2017,2017,49.090021,-123.07590,,
547,2011,5915011,Delta Continuing Education,Delta,0,207,2016/2017,2017,49.089079,-123.06523,,
548,2011,5915011,Delta Secondary,Delta,0,1148,2016/2017,2017,49.085606,-123.08267,,
549,2011,5915011,Delview Secondary,Delta,0,705,2016/2017,2017,49.168913,-122.90132,,
550,2011,5915011,Devon Gardens Elementary,Delta,377,0,2016/2017,2017,49.164884,-122.91491,,
551,2011,5915011,English Bluff Elementary,Delta,170,0,2016/2017,2017,49.010023,-123.08986,,
552,2011,5915011,Gibson Elementary,Delta,408,0,2016/2017,2017,49.166928,-122.90559,,
553,2011,5915011,Gray Elementary,Delta,526,0,2016/2017,2017,49.148488,-122.92213,,
554,2011,5915011,Hawthorne Elementary,Delta,454,0,2016/2017,2017,49.096116,-123.07250,,
555,2011,5915011,Heath Traditional Elementary,Delta,248,0,2016/2017,2017,49.133853,-122.90733,,
556,2011,5915011,Hellings Elementary,Delta,304,0,2016/2017,2017,49.159590,-122.89981,,
557,2011,5915011,Holly Elementary,Delta,381,0,2016/2017,2017,49.087124,-123.05120,,
558,2011,5915011,Home Quest,Delta,74,4,2016/2017,2017,49.089079,-123.06523,,
559,2011,5915011,Immaculate Conception School,Delta,459,0,2016/2017,2017,49.163485,-122.89261,,
560,2011,5915011,Jarvis Traditional Elementary,Delta,473,0,2016/2017,2017,49.142625,-122.89582,,
561,2011,5915011,Ladner Elementary,Delta,437,0,2016/2017,2017,49.082867,-123.08437,,
562,2011,5915011,McCloskey Elementary,Delta,365,0,2016/2017,2017,49.148651,-122.90333,,
563,2011,5915011,Neilson Grove Elementary,Delta,207,0,2016/2017,2017,49.104300,-123.07231,,
564,2011,5915011,North Delta Secondary,Delta,0,982,2016/2017,2017,49.152254,-122.90569,,
565,2011,5915011,Pebble Hill Traditional Elementary,Delta,289,0,2016/2017,2017,49.007124,-123.07836,,
566,2011,5915011,Pinewood Elementary,Delta,275,0,2016/2017,2017,49.114549,-122.89679,,
567,2011,5915011,Port Guichon Elementary,Delta,165,0,2016/2017,2017,49.082709,-123.09529,,
568,2011,5915011,Richardson Elementary,Delta,439,0,2016/2017,2017,49.154256,-122.90861,,
569,2011,5915011,Sacred Heart,Delta,359,0,2016/2017,2017,49.084722,-123.05861,,
570,2011,5915011,Sands Secondary,Delta,0,776,2016/2017,2017,49.152202,-122.92263,,
571,2011,5915011,Seaquam Secondary,Delta,0,1413,2016/2017,2017,49.127632,-122.90265,,
572,2011,5915011,South Delta Secondary,Delta,0,1485,2016/2017,2017,49.016083,-123.07683,,
573,2011,5915011,South Park Elementary,Delta,348,0,2016/2017,2017,49.016147,-123.07036,,
574,2011,5915011,Southpointe Academy,Delta,319,227,2016/2017,2017,49.036841,-123.06855,,
575,2011,5915011,Sunshine Hills Elementary,Delta,567,0,2016/2017,2017,49.123462,-122.90989,,
576,2011,5915015,A.R. MacNeill Secondary,Richmond,0,782,2016/2017,2017,49.164882,-123.11411,,
577,2011,5915015,Alfred B Dixon Elementary,Richmond,353,0,2016/2017,2017,49.144571,-123.18391,,
578,2011,5915015,Archibald Blair Elementary,Richmond,367,0,2016/2017,2017,49.165318,-123.16461,,
579,2011,5915029,Ark Elementary,Richmond,22,0,2016/2017,2017,49.201664,-122.91025,,
580,2011,5915015,Az-Zahraa Islamic Academy,Richmond,117,0,2016/2017,2017,49.150491,-123.09171,,
581,2011,5915015,BC Muslim School,Richmond,297,0,2016/2017,2017,49.155454,-123.08791,,
582,2011,5915015,Blundell Elementary,Richmond,127,0,2016/2017,2017,49.155532,-123.15243,,
583,2011,5915015,Cambie Secondary,Richmond,0,596,2016/2017,2017,49.183178,-123.08036,,
584,2011,5915015,Choice School For Gifted Children,Richmond,48,0,2016/2017,2017,49.169841,-122.99548,,
585,2011,5915015,City Vancouver Academy,Richmond,0,46,2016/2017,2017,49.183532,-123.12558,,
586,2011,5915015,Continuing Ed SD 38,Richmond,0,403,2016/2017,2017,49.162818,-123.13821,,
587,2011,5915015,Cornerstone Christian Academy,Richmond,198,0,2016/2017,2017,49.155486,-123.09164,,
588,2011,5915015,Daniel Woodward Elementary,Richmond,137,0,2016/2017,2017,49.138118,-123.09845,,
589,2011,5915015,Donald E McKay Elementary,Richmond,143,0,2016/2017,2017,49.158631,-123.16694,,
590,2011,5915015,Errington Learning Centre,Richmond,8,0,2016/2017,2017,49.142996,-123.14081,,
591,2011,5915015,Garden City Elementary,Richmond,265,0,2016/2017,2017,49.152596,-123.12535,,
592,2011,5915015,General Currie Elementary,Richmond,414,0,2016/2017,2017,49.159164,-123.13369,,
593,2011,5915015,Glen Eden School,Richmond,9,5,2016/2017,2017,49.182793,-123.07926,,
594,2011,5915015,Hamilton Elementary,Richmond,427,0,2016/2017,2017,49.175878,-122.96639,,
595,2011,5915015,Henry Anderson Elementary,Richmond,527,0,2016/2017,2017,49.165695,-123.11976,,
596,2011,5915015,Howard De Beck Elementary,Richmond,282,0,2016/2017,2017,49.150745,-123.11972,,
597,2011,5915015,Hugh Boyd Secondary,Richmond,0,706,2016/2017,2017,49.146444,-123.18125,,
598,2011,5915015,Hugh McRoberts Secondary,Richmond,0,933,2016/2017,2017,49.140782,-123.12542,,
599,2011,5915015,J N Burnett Secondary,Richmond,0,1004,2016/2017,2017,49.162714,-123.16953,,
600,2011,5915015,James Gilmore Elementary,Richmond,296,0,2016/2017,2017,49.152076,-123.18867,,
601,2011,5915015,James McKinney Elementary,Richmond,302,0,2016/2017,2017,49.136911,-123.16375,,
602,2011,5915015,James Thompson Elementary,Richmond,207,0,2016/2017,2017,49.169147,-123.17764,,
603,2011,5915015,James Whiteside Elementary,Richmond,404,0,2016/2017,2017,49.140764,-123.12044,,
604,2011,5915015,Jessie Wowk Elementary,Richmond,225,0,2016/2017,2017,49.143879,-123.16425,,
605,2011,5915015,John G Diefenbaker Elementary,Richmond,350,0,2016/2017,2017,49.137132,-123.17596,,
606,2011,5915015,John T Errington Elementary,Richmond,231,0,2016/2017,2017,49.142996,-123.14081,,
607,2011,5915015,Kathleen McNeely Elementary,Richmond,297,0,2016/2017,2017,49.182296,-123.08662,,
608,2011,5915015,Kingswood Elementary,Richmond,207,0,2016/2017,2017,49.144329,-123.09544,,
609,2011,5915015,Lord Byng Elementary,Richmond,313,0,2016/2017,2017,49.130264,-123.18413,,
610,2011,5915015,Manoah Steves Elementary,Richmond,282,0,2016/2017,2017,49.140188,-123.18703,,
611,2011,5915015,Maple Lane Elementary,Richmond,171,0,2016/2017,2017,49.137231,-123.14118,,
612,2011,5915015,Matthew McNair Secondary,Richmond,0,832,2016/2017,2017,49.142951,-123.11404,,
613,2011,5915015,Mitchell Elementary,Richmond,384,0,2016/2017,2017,49.184624,-123.09050,,
614,2011,5915015,Pythagoras Academy,Richmond,107,0,2016/2017,2017,49.180864,-123.12708,,
615,2011,5915015,Quilchena Elementary,Richmond,148,0,2016/2017,2017,49.159223,-123.18477,,
616,2011,5915015,R C Palmer Secondary,Richmond,0,575,2016/2017,2017,49.154063,-123.13090,,
617,2011,5915015,R M Grauer Elementary,Richmond,144,0,2016/2017,2017,49.155594,-123.17535,,
618,2011,5915015,R. C. Talmey Elementary,Richmond,160,0,2016/2017,2017,49.188408,-123.11942,,
619,2011,5915015,Richmond Christian School,Richmond,587,397,2016/2017,2017,49.143880,-123.16627,,
620,2011,5915015,Richmond Jewish Day School,Richmond,99,0,2016/2017,2017,49.148962,-123.09173,,
621,2011,5915015,Richmond Secondary,Richmond,0,1168,2016/2017,2017,49.161347,-123.14029,,
622,2011,5915015,Richmond Virtual School,Richmond,0,584,2016/2017,2017,49.162818,-123.13821,,
623,2011,5915015,Robert Alexander McMath Secondary,Richmond,0,1292,2016/2017,2017,49.129327,-123.17750,,
624,2011,5915015,Robert J Tait Elementary,Richmond,215,0,2016/2017,2017,49.195823,-123.11229,,
625,2011,5915015,Samuel Brighouse Elementary,Richmond,381,0,2016/2017,2017,49.165991,-123.14975,,
626,2011,5915015,Sea Island Elementary,Richmond,31,0,2016/2017,2017,49.190838,-123.14918,,
627,2011,5915015,Spul'u'kwuks Elementary,Richmond,413,0,2016/2017,2017,49.170743,-123.18440,,
628,2011,5915015,St Joseph the Worker,Richmond,224,0,2016/2017,2017,49.141088,-123.17471,,
629,2011,5915015,St Paul School,Richmond,246,0,2016/2017,2017,49.153441,-123.13101,,
630,2011,5915015,Station Stretch,Richmond,1,70,2016/2017,2017,49.175376,-123.14009,,
631,2011,5915015,Steveston-London Secondary,Richmond,0,1257,2016/2017,2017,49.140910,-123.15028,,
